{
  "theaters": [
    {
      "id": 5894,
      "tribuneTheaterId": 11315,
      "providerTheaterId": "",
      "name": "Metrograph",
      "address": "7 Ludlow St.",
      "city": "New York",
      "state": "NY",
      "zip": "10002",
      "distance": 0.36,
      "lon": -73.991181,
      "lat": 40.715078,
      "theaterChainName": "Independent Chains",
      "ticketType": "STANDARD"
    },
    {
      "id": 540,
      "tribuneTheaterId": 2975,
      "providerTheaterId": "",
      "name": "City Cinemas Angelika Film Center",
      "address": "18 W. Houston St.",
      "city": "New York",
      "state": "NY",
      "zip": "10012",
      "distance": 1.16,
      "lon": -73.997283,
      "lat": 40.725811,
      "theaterChainName": "Reading International, Inc",
      "ticketType": "STANDARD"
    },
    {
      "id": 3234,
      "tribuneTheaterId": 5711,
      "providerTheaterId": "",
      "name": "UA Court Street Stadium 12",
      "address": "108 Court St.",
      "city": "Brooklyn",
      "state": "NY",
      "zip": "11201",
      "distance": 1.35,
      "lon": -73.992153,
      "lat": 40.690552,
      "theaterChainName": "United Artists",
      "ticketType": "STANDARD"
    },
    {
      "id": 538,
      "tribuneTheaterId": 3034,
      "providerTheaterId": "",
      "name": "City Cinemas Village East",
      "address": "181-189 Second Ave.",
      "city": "New York",
      "state": "NY",
      "zip": "10003",
      "distance": 1.46,
      "lon": -73.98617,
      "lat": 40.73092,
      "theaterChainName": "Reading International, Inc",
      "ticketType": "STANDARD"
    },
    {
      "id": 149,
      "tribuneTheaterId": 9112,
      "providerTheaterId": "2110",
      "name": "AMC Loews Village 7",
      "address": "66 3rd Ave. (11th St.)",
      "city": "New York",
      "state": "NY",
      "zip": "10003",
      "distance": 1.49,
      "lon": -73.988758,
      "lat": 40.731499,
      "theaterChainName": "AMC Theatres",
      "ticketType": "STANDARD"
    },
    {
      "id": 1609,
      "tribuneTheaterId": 7572,
      "providerTheaterId": "",
      "name": "Regal Union Square Stadium 14",
      "address": "850 Broadway",
      "city": "New York",
      "state": "NY",
      "zip": "10003",
      "distance": 1.66,
      "lon": -73.990574,
      "lat": 40.734049,
      "theaterChainName": "Regal Cinemas",
      "ticketType": "STANDARD"
    },
    {
      "id": 4034,
      "tribuneTheaterId": 1642,
      "providerTheaterId": "",
      "name": "IFC Center",
      "address": "323 6th Ave. at W 3rd St.",
      "city": "New York",
      "state": "NY",
      "zip": "10014",
      "distance": 1.58,
      "lon": -74.001535,
      "lat": 40.73114,
      "theaterChainName": "Independent Chains",
      "ticketType": "STANDARD"
    },
    {
      "id": 571,
      "tribuneTheaterId": 8448,
      "providerTheaterId": "",
      "name": "Cinema Village 12th Street",
      "address": "22 E. 12th St.",
      "city": "New York",
      "state": "NY",
      "zip": "10003",
      "distance": 1.67,
      "lon": -73.993429,
      "lat": 40.734077,
      "theaterChainName": "Independent Chains",
      "ticketType": "STANDARD"
    },
    {
      "id": 3232,
      "tribuneTheaterId": 5635,
      "providerTheaterId": "",
      "name": "Regal Battery Park Stadium 11",
      "address": "102 North End Ave.",
      "city": "New York",
      "state": "NY",
      "zip": "10281",
      "distance": 1.35,
      "lon": -74.014968,
      "lat": 40.714859,
      "theaterChainName": "Regal Cinemas",
      "ticketType": "STANDARD"
    },
    {
      "id": 564,
      "tribuneTheaterId": 6948,
      "providerTheaterId": "",
      "name": "Cobble Hill Cinema",
      "address": "265 Court St.",
      "city": "Brooklyn",
      "state": "NY",
      "zip": "11231",
      "distance": 1.75,
      "lon": -73.994512,
      "lat": 40.68491,
      "theaterChainName": "Cobble Hill Cinemas",
      "ticketType": "STANDARD"
    },
    {
      "id": 2746,
      "tribuneTheaterId": 2576,
      "providerTheaterId": "",
      "name": "Bam Rose Cinemas",
      "address": "30 Lafayette Ave.",
      "city": "Brooklyn",
      "state": "NY",
      "zip": "11217",
      "distance": 1.75,
      "lon": -73.977703,
      "lat": 40.68645,
      "theaterChainName": "Independent Chains",
      "ticketType": "STANDARD"
    },
    {
      "id": 573,
      "tribuneTheaterId": 7785,
      "providerTheaterId": "",
      "name": "Quad Cinema",
      "address": "34 W. 13th St.",
      "city": "New York",
      "state": "NY",
      "zip": "10011",
      "distance": 1.82,
      "lon": -73.996002,
      "lat": 40.735978,
      "theaterChainName": "Independent Chains",
      "ticketType": "STANDARD"
    },
    {
      "id": 5060,
      "tribuneTheaterId": 10443,
      "providerTheaterId": "",
      "name": "Nitehawk Cinema",
      "address": "136 Metropolitan Ave.",
      "city": "Brooklyn",
      "state": "NY",
      "zip": "11249",
      "distance": 1.5,
      "lon": -73.962506,
      "lat": 40.716121,
      "theaterChainName": "Independent Chains",
      "ticketType": "STANDARD"
    },
    {
      "id": 5777,
      "tribuneTheaterId": 11217,
      "providerTheaterId": "",
      "name": "Videology Cinema",
      "address": "308 Bedford Ave.",
      "city": "Brooklyn",
      "state": "NY",
      "zip": "11249",
      "distance": 1.5,
      "lon": -73.961814,
      "lat": 40.713864,
      "theaterChainName": "Independent Chains",
      "ticketType": "STANDARD"
    },
    {
      "id": 150,
      "tribuneTheaterId": 9084,
      "providerTheaterId": "2112",
      "name": "AMC Loews 19th Street East 6",
      "address": "890 Broadway",
      "city": "New York",
      "state": "NY",
      "zip": "10003",
      "distance": 1.97,
      "lon": -73.98977,
      "lat": 40.738557,
      "theaterChainName": "AMC Theatres",
      "ticketType": "STANDARD"
    },
    {
      "id": 5284,
      "tribuneTheaterId": 10718,
      "providerTheaterId": "",
      "name": "Williamsburg Cinemas",
      "address": "217 Grand St.",
      "city": "Brooklyn",
      "state": "NY",
      "zip": "11211",
      "distance": 1.6,
      "lon": -73.9599,
      "lat": 40.7139,
      "theaterChainName": "Independent Chains",
      "ticketType": "STANDARD"
    },
    {
      "id": 2472,
      "tribuneTheaterId": 9151,
      "providerTheaterId": "2195",
      "name": "AMC Loews Kips Bay 15",
      "address": "570 Second Ave.",
      "city": "New York",
      "state": "NY",
      "zip": "10016",
      "distance": 2.42,
      "lon": -73.9767,
      "lat": 40.7435,
      "theaterChainName": "AMC Theatres",
      "ticketType": "STANDARD"
    },
    {
      "id": 3442,
      "tribuneTheaterId": 9013,
      "providerTheaterId": "2120",
      "name": "AMC Loews West 34th Street 14",
      "address": "312 W. 34th St.",
      "city": "New York",
      "state": "NY",
      "zip": "10001",
      "distance": 2.95,
      "lon": -73.994396,
      "lat": 40.75251,
      "theaterChainName": "AMC Theatres",
      "ticketType": "STANDARD"
    },
    {
      "id": 2986,
      "tribuneTheaterId": 7503,
      "providerTheaterId": "552",
      "name": "AMC Empire 25",
      "address": "234 W. 42nd St.",
      "city": "New York",
      "state": "NY",
      "zip": "10036",
      "distance": 3.22,
      "lon": -73.98866,
      "lat": 40.756581,
      "theaterChainName": "AMC Theatres",
      "ticketType": "STANDARD"
    },
    {
      "id": 2820,
      "tribuneTheaterId": 9074,
      "providerTheaterId": "",
      "name": "Regal E-Walk Stadium 13",
      "address": "247 W. 42nd St.",
      "city": "New York",
      "state": "NY",
      "zip": "10036",
      "distance": 3.25,
      "lon": -73.989113,
      "lat": 40.757082,
      "theaterChainName": "Regal Cinemas",
      "ticketType": "STANDARD"
    },
    {
      "id": 178,
      "tribuneTheaterId": 7790,
      "providerTheaterId": "2184",
      "name": "AMC Loews Newport Centre 11",
      "address": "30-300 Mall Drive W.",
      "city": "Jersey City",
      "state": "NJ",
      "zip": "07303",
      "distance": 2.81,
      "lon": -74.038024,
      "lat": 40.728039,
      "theaterChainName": "AMC Theatres",
      "ticketType": "STANDARD"
    },
    {
      "id": 570,
      "tribuneTheaterId": 6648,
      "providerTheaterId": "",
      "name": "City Cinemas Paris Theatre",
      "address": "4 W. 58th St.",
      "city": "New York",
      "state": "NY",
      "zip": "10019",
      "distance": 3.83,
      "lon": -73.974713,
      "lat": 40.764145,
      "theaterChainName": "Reading International, Inc",
      "ticketType": "STANDARD"
    },
    {
      "id": 5965,
      "tribuneTheaterId": 11401,
      "providerTheaterId": "",
      "name": "Syndicated",
      "address": "40 Bogart Street",
      "city": "Brooklyn",
      "state": "NY",
      "zip": "11206",
      "distance": 3.01,
      "lon": -73.93286,
      "lat": 40.704962,
      "theaterChainName": "Independent Chains",
      "ticketType": "STANDARD"
    },
    {
      "id": 4832,
      "tribuneTheaterId": 10108,
      "providerTheaterId": "",
      "name": "Bow Tie Hoboken Cinemas",
      "address": "409-415 14th St.",
      "city": "Hoboken",
      "state": "NJ",
      "zip": "07030",
      "distance": 3.76,
      "lon": -74.0319,
      "lat": 40.7542,
      "theaterChainName": "Bow-Tie Cinemas",
      "ticketType": "STANDARD"
    },
    {
      "id": 574,
      "tribuneTheaterId": 2976,
      "providerTheaterId": "",
      "name": "Lincoln Plaza Cinemas",
      "address": "1886 Broadway",
      "city": "New York",
      "state": "NY",
      "zip": "10023",
      "distance": 4.23,
      "lon": -73.98184,
      "lat": 40.770837,
      "theaterChainName": "Independent Chains",
      "ticketType": "STANDARD"
    },
    {
      "id": 4601,
      "tribuneTheaterId": 9770,
      "providerTheaterId": "",
      "name": "City Cinemas Beekman Theatre",
      "address": "1271 Second Ave.",
      "city": "New York",
      "state": "NY",
      "zip": "10021",
      "distance": 4.11,
      "lon": -73.961008,
      "lat": 40.765277,
      "theaterChainName": "Reading International, Inc",
      "ticketType": "STANDARD"
    },
    {
      "id": 5064,
      "tribuneTheaterId": 10447,
      "providerTheaterId": "",
      "name": "Film Society of Lincoln Center",
      "address": "144 W 65th St.",
      "city": "New York",
      "state": "NY",
      "zip": "10023",
      "distance": 4.4,
      "lon": -73.983597,
      "lat": 40.773499,
      "theaterChainName": "Independent Chains",
      "ticketType": "STANDARD"
    },
    {
      "id": 575,
      "tribuneTheaterId": 8099,
      "providerTheaterId": "",
      "name": "Film Society of Lincoln Center's Walter Reade Theater",
      "address": "165 W. 65th St.",
      "city": "New York",
      "state": "NY",
      "zip": "10023",
      "distance": 4.4,
      "lon": -73.983597,
      "lat": 40.773499,
      "theaterChainName": "Independent Chains",
      "ticketType": "STANDARD"
    },
    {
      "id": 151,
      "tribuneTheaterId": 9062,
      "providerTheaterId": "2116",
      "name": "AMC Loews Lincoln Square 13",
      "address": "1998 Broadway",
      "city": "New York",
      "state": "NY",
      "zip": "10023",
      "distance": 4.51,
      "lon": -73.98164,
      "lat": 40.774975,
      "theaterChainName": "AMC Theatres",
      "ticketType": "STANDARD"
    },
    {
      "id": 539,
      "tribuneTheaterId": 2863,
      "providerTheaterId": "",
      "name": "City Cinemas 86th Street East",
      "address": "210 E. 86th St.",
      "city": "New York",
      "state": "NY",
      "zip": "10028",
      "distance": 5.1,
      "lon": -73.953339,
      "lat": 40.778375,
      "theaterChainName": "Reading International, Inc",
      "ticketType": "STANDARD"
    },
    {
      "id": 148,
      "tribuneTheaterId": 9039,
      "providerTheaterId": "2104",
      "name": "AMC Loews Orpheum 7",
      "address": "1538 Third Ave.",
      "city": "New York",
      "state": "NY",
      "zip": "10028",
      "distance": 5.15,
      "lon": -73.953855,
      "lat": 40.779304,
      "theaterChainName": "AMC Theatres",
      "ticketType": "STANDARD"
    },
    {
      "id": 3235,
      "tribuneTheaterId": 5871,
      "providerTheaterId": "",
      "name": "Columbia Park Stadium 12",
      "address": "3125 Kennedy Blvd.",
      "city": "North Bergen",
      "state": "NJ",
      "zip": "07047",
      "distance": 5.12,
      "lon": -74.035916,
      "lat": 40.77549,
      "theaterChainName": "Independent Chains",
      "ticketType": "STANDARD"
    },
    {
      "id": 3233,
      "tribuneTheaterId": 5712,
      "providerTheaterId": "",
      "name": "UA Kaufman Astoria Stadium 14",
      "address": "35-30 38th St.",
      "city": "Astoria",
      "state": "NY",
      "zip": "11101",
      "distance": 4.67,
      "lon": -73.923622,
      "lat": 40.755206,
      "theaterChainName": "United Artists",
      "ticketType": "STANDARD"
    },
    {
      "id": 169,
      "tribuneTheaterId": 3033,
      "providerTheaterId": "",
      "name": "Bay Ridge Alpine Cinemas",
      "address": "6817 Fifth Ave.",
      "city": "Brooklyn",
      "state": "NY",
      "zip": "11220",
      "distance": 5.52,
      "lon": -74.020808,
      "lat": 40.633656,
      "theaterChainName": "Independent Chains",
      "ticketType": "STANDARD"
    },
    {
      "id": 565,
      "tribuneTheaterId": 7481,
      "providerTheaterId": "",
      "name": "Kent Theatre",
      "address": "1170 Coney Island Ave.",
      "city": "Brooklyn",
      "state": "NY",
      "zip": "11230",
      "distance": 5.74,
      "lon": -73.966003,
      "lat": 40.629002,
      "theaterChainName": "Independent Chains",
      "ticketType": "STANDARD"
    },
    {
      "id": 4804,
      "tribuneTheaterId": 10061,
      "providerTheaterId": "",
      "name": "Secaucus ShowPlace 14",
      "address": "650 Plaza Drive",
      "city": "Secaucus",
      "state": "NJ",
      "zip": "07094",
      "distance": 6.04,
      "lon": -74.0463,
      "lat": 40.7863,
      "theaterChainName": "Kerasotes",
      "ticketType": "STANDARD"
    },
    {
      "id": 3103,
      "tribuneTheaterId": 7174,
      "providerTheaterId": "",
      "name": "Edgewater Multiplex Cinemas",
      "address": "339 River Road",
      "city": "Edgewater",
      "state": "NJ",
      "zip": "07020",
      "distance": 6.77,
      "lon": -73.988109,
      "lat": 40.808032,
      "theaterChainName": "National Amusements",
      "ticketType": "STANDARD"
    },
    {
      "id": 3044,
      "tribuneTheaterId": 9040,
      "providerTheaterId": "2304",
      "name": "AMC Magic Johnson Harlem 9",
      "address": "2309 Frederick Douglass Blvd.",
      "city": "New York",
      "state": "NY",
      "zip": "10027",
      "distance": 7.17,
      "lon": -73.951791,
      "lat": 40.809678,
      "theaterChainName": "AMC Theatres",
      "ticketType": "STANDARD"
    },
    {
      "id": 4232,
      "tribuneTheaterId": 3065,
      "providerTheaterId": "",
      "name": "Hudson Cinemas",
      "address": "701 Route 440",
      "city": "Jersey City",
      "state": "NJ",
      "zip": "07304",
      "distance": 5.62,
      "lon": -74.096453,
      "lat": 40.720707,
      "theaterChainName": "Independent Chains",
      "ticketType": "STANDARD"
    },
    {
      "id": 4206,
      "tribuneTheaterId": 4646,
      "providerTheaterId": "",
      "name": "Regal Atlas Park Stadium 8",
      "address": "Cooper Ave ",
      "city": "Glendale",
      "state": "NY",
      "zip": "11385",
      "distance": 6.41,
      "lon": -73.867639,
      "lat": 40.707906,
      "theaterChainName": "Regal Cinemas",
      "ticketType": "STANDARD"
    }
  ]
}