{
  "theaters": [
    {
      "id": 565,
      "tribuneTheaterId": 7481,
      "providerTheaterId": "",
      "name": "Kent Theatre",
      "address": "1170 Coney Island Ave.",
      "city": "Brooklyn",
      "state": "NY",
      "zip": "11230",
      "distance": 1.56,
      "lon": -73.966003,
      "lat": 40.629002,
      "theaterChainName": "Independent Chains",
      "ticketType": "STANDARD"
    },
    {
      "id": 111,
      "tribuneTheaterId": 7750,
      "providerTheaterId": "",
      "name": "UA Sheepshead Bay Stadium 14 + IMAX",
      "address": "3907 Shore Pkwy.",
      "city": "Brooklyn",
      "state": "NY",
      "zip": "11235",
      "distance": 3.75,
      "lon": -73.930501,
      "lat": 40.586166,
      "theaterChainName": "United Artists",
      "ticketType": "STANDARD"
    },
    {
      "id": 2746,
      "tribuneTheaterId": 2576,
      "providerTheaterId": "",
      "name": "Bam Rose Cinemas",
      "address": "30 Lafayette Ave.",
      "city": "Brooklyn",
      "state": "NY",
      "zip": "11217",
      "distance": 3.77,
      "lon": -73.977703,
      "lat": 40.68645,
      "theaterChainName": "Independent Chains",
      "ticketType": "STANDARD"
    },
    {
      "id": 5965,
      "tribuneTheaterId": 11401,
      "providerTheaterId": "",
      "name": "Syndicated",
      "address": "40 Bogart Street",
      "city": "Brooklyn",
      "state": "NY",
      "zip": "11206",
      "distance": 4.5,
      "lon": -73.93286,
      "lat": 40.704962,
      "theaterChainName": "Independent Chains",
      "ticketType": "STANDARD"
    },
    {
      "id": 564,
      "tribuneTheaterId": 6948,
      "providerTheaterId": "",
      "name": "Cobble Hill Cinema",
      "address": "265 Court St.",
      "city": "Brooklyn",
      "state": "NY",
      "zip": "11231",
      "distance": 4.22,
      "lon": -73.994512,
      "lat": 40.68491,
      "theaterChainName": "Cobble Hill Cinemas",
      "ticketType": "STANDARD"
    },
    {
      "id": 3234,
      "tribuneTheaterId": 5711,
      "providerTheaterId": "",
      "name": "UA Court Street Stadium 12",
      "address": "108 Court St.",
      "city": "Brooklyn",
      "state": "NY",
      "zip": "11201",
      "distance": 4.44,
      "lon": -73.992153,
      "lat": 40.690552,
      "theaterChainName": "United Artists",
      "ticketType": "STANDARD"
    },
    {
      "id": 5284,
      "tribuneTheaterId": 10718,
      "providerTheaterId": "",
      "name": "Williamsburg Cinemas",
      "address": "217 Grand St.",
      "city": "Brooklyn",
      "state": "NY",
      "zip": "11211",
      "distance": 5.21,
      "lon": -73.9599,
      "lat": 40.7139,
      "theaterChainName": "Independent Chains",
      "ticketType": "STANDARD"
    },
    {
      "id": 5777,
      "tribuneTheaterId": 11217,
      "providerTheaterId": "",
      "name": "Videology Cinema",
      "address": "308 Bedford Ave.",
      "city": "Brooklyn",
      "state": "NY",
      "zip": "11249",
      "distance": 5.23,
      "lon": -73.961814,
      "lat": 40.713864,
      "theaterChainName": "Independent Chains",
      "ticketType": "STANDARD"
    },
    {
      "id": 5060,
      "tribuneTheaterId": 10443,
      "providerTheaterId": "",
      "name": "Nitehawk Cinema",
      "address": "136 Metropolitan Ave.",
      "city": "Brooklyn",
      "state": "NY",
      "zip": "11249",
      "distance": 5.39,
      "lon": -73.962506,
      "lat": 40.716121,
      "theaterChainName": "Independent Chains",
      "ticketType": "STANDARD"
    },
    {
      "id": 169,
      "tribuneTheaterId": 3033,
      "providerTheaterId": "",
      "name": "Bay Ridge Alpine Cinemas",
      "address": "6817 Fifth Ave.",
      "city": "Brooklyn",
      "state": "NY",
      "zip": "11220",
      "distance": 4.26,
      "lon": -74.020808,
      "lat": 40.633656,
      "theaterChainName": "Independent Chains",
      "ticketType": "STANDARD"
    },
    {
      "id": 824,
      "tribuneTheaterId": 7620,
      "providerTheaterId": "",
      "name": "Linden Blvd. Multiplex Cinemas",
      "address": "2784 Linden Blvd.",
      "city": "Brooklyn",
      "state": "NY",
      "zip": "11208",
      "distance": 4.59,
      "lon": -73.8614,
      "lat": 40.6694,
      "theaterChainName": "National Amusements",
      "ticketType": "STANDARD"
    },
    {
      "id": 5894,
      "tribuneTheaterId": 11315,
      "providerTheaterId": "",
      "name": "Metrograph",
      "address": "7 Ludlow St.",
      "city": "New York",
      "state": "NY",
      "zip": "10002",
      "distance": 5.84,
      "lon": -73.991181,
      "lat": 40.715078,
      "theaterChainName": "Independent Chains",
      "ticketType": "STANDARD"
    },
    {
      "id": 4206,
      "tribuneTheaterId": 4646,
      "providerTheaterId": "",
      "name": "Regal Atlas Park Stadium 8",
      "address": "Cooper Ave ",
      "city": "Glendale",
      "state": "NY",
      "zip": "11385",
      "distance": 6.03,
      "lon": -73.867639,
      "lat": 40.707906,
      "theaterChainName": "Regal Cinemas",
      "ticketType": "STANDARD"
    },
    {
      "id": 538,
      "tribuneTheaterId": 3034,
      "providerTheaterId": "",
      "name": "City Cinemas Village East",
      "address": "181-189 Second Ave.",
      "city": "New York",
      "state": "NY",
      "zip": "10003",
      "distance": 6.73,
      "lon": -73.98617,
      "lat": 40.73092,
      "theaterChainName": "Reading International, Inc",
      "ticketType": "STANDARD"
    },
    {
      "id": 540,
      "tribuneTheaterId": 2975,
      "providerTheaterId": "",
      "name": "City Cinemas Angelika Film Center",
      "address": "18 W. Houston St.",
      "city": "New York",
      "state": "NY",
      "zip": "10012",
      "distance": 6.65,
      "lon": -73.997283,
      "lat": 40.725811,
      "theaterChainName": "Reading International, Inc",
      "ticketType": "STANDARD"
    },
    {
      "id": 149,
      "tribuneTheaterId": 9112,
      "providerTheaterId": "2110",
      "name": "AMC Loews Village 7",
      "address": "66 3rd Ave. (11th St.)",
      "city": "New York",
      "state": "NY",
      "zip": "10003",
      "distance": 6.82,
      "lon": -73.988758,
      "lat": 40.731499,
      "theaterChainName": "AMC Theatres",
      "ticketType": "STANDARD"
    },
    {
      "id": 3232,
      "tribuneTheaterId": 5635,
      "providerTheaterId": "",
      "name": "Regal Battery Park Stadium 11",
      "address": "102 North End Ave.",
      "city": "New York",
      "state": "NY",
      "zip": "10281",
      "distance": 6.5,
      "lon": -74.014968,
      "lat": 40.714859,
      "theaterChainName": "Regal Cinemas",
      "ticketType": "STANDARD"
    },
    {
      "id": 1609,
      "tribuneTheaterId": 7572,
      "providerTheaterId": "",
      "name": "Regal Union Square Stadium 14",
      "address": "850 Broadway",
      "city": "New York",
      "state": "NY",
      "zip": "10003",
      "distance": 7.02,
      "lon": -73.990574,
      "lat": 40.734049,
      "theaterChainName": "Regal Cinemas",
      "ticketType": "STANDARD"
    },
    {
      "id": 571,
      "tribuneTheaterId": 8448,
      "providerTheaterId": "",
      "name": "Cinema Village 12th Street",
      "address": "22 E. 12th St.",
      "city": "New York",
      "state": "NY",
      "zip": "10003",
      "distance": 7.08,
      "lon": -73.993429,
      "lat": 40.734077,
      "theaterChainName": "Independent Chains",
      "ticketType": "STANDARD"
    },
    {
      "id": 2472,
      "tribuneTheaterId": 9151,
      "providerTheaterId": "2195",
      "name": "AMC Loews Kips Bay 15",
      "address": "570 Second Ave.",
      "city": "New York",
      "state": "NY",
      "zip": "10016",
      "distance": 7.41,
      "lon": -73.9767,
      "lat": 40.7435,
      "theaterChainName": "AMC Theatres",
      "ticketType": "STANDARD"
    },
    {
      "id": 4034,
      "tribuneTheaterId": 1642,
      "providerTheaterId": "",
      "name": "IFC Center",
      "address": "323 6th Ave. at W 3rd St.",
      "city": "New York",
      "state": "NY",
      "zip": "10014",
      "distance": 7.07,
      "lon": -74.001535,
      "lat": 40.73114,
      "theaterChainName": "Independent Chains",
      "ticketType": "STANDARD"
    },
    {
      "id": 150,
      "tribuneTheaterId": 9084,
      "providerTheaterId": "2112",
      "name": "AMC Loews 19th Street East 6",
      "address": "890 Broadway",
      "city": "New York",
      "state": "NY",
      "zip": "10003",
      "distance": 7.29,
      "lon": -73.98977,
      "lat": 40.738557,
      "theaterChainName": "AMC Theatres",
      "ticketType": "STANDARD"
    },
    {
      "id": 573,
      "tribuneTheaterId": 7785,
      "providerTheaterId": "",
      "name": "Quad Cinema",
      "address": "34 W. 13th St.",
      "city": "New York",
      "state": "NY",
      "zip": "10011",
      "distance": 7.25,
      "lon": -73.996002,
      "lat": 40.735978,
      "theaterChainName": "Independent Chains",
      "ticketType": "STANDARD"
    },
    {
      "id": 3233,
      "tribuneTheaterId": 5712,
      "providerTheaterId": "",
      "name": "UA Kaufman Astoria Stadium 14",
      "address": "35-30 38th St.",
      "city": "Astoria",
      "state": "NY",
      "zip": "11101",
      "distance": 8.01,
      "lon": -73.923622,
      "lat": 40.755206,
      "theaterChainName": "United Artists",
      "ticketType": "STANDARD"
    },
    {
      "id": 566,
      "tribuneTheaterId": 7948,
      "providerTheaterId": "",
      "name": "Cinemart Cinemas",
      "address": "106-03 Metropolitan Ave.",
      "city": "Forest Hills",
      "state": "NY",
      "zip": "11375",
      "distance": 6.87,
      "lon": -73.846874,
      "lat": 40.710038,
      "theaterChainName": "Independent Chains",
      "ticketType": "STANDARD"
    },
    {
      "id": 3442,
      "tribuneTheaterId": 9013,
      "providerTheaterId": "2120",
      "name": "AMC Loews West 34th Street 14",
      "address": "312 W. 34th St.",
      "city": "New York",
      "state": "NY",
      "zip": "10001",
      "distance": 8.28,
      "lon": -73.994396,
      "lat": 40.75251,
      "theaterChainName": "AMC Theatres",
      "ticketType": "STANDARD"
    },
    {
      "id": 110,
      "tribuneTheaterId": 7903,
      "providerTheaterId": "",
      "name": "UA Midway Stadium 9",
      "address": "108-22 Queens Blvd.",
      "city": "Forest Hills",
      "state": "NY",
      "zip": "11375",
      "distance": 7.54,
      "lon": -73.843419,
      "lat": 40.720823,
      "theaterChainName": "United Artists",
      "ticketType": "STANDARD"
    },
    {
      "id": 2986,
      "tribuneTheaterId": 7503,
      "providerTheaterId": "552",
      "name": "AMC Empire 25",
      "address": "234 W. 42nd St.",
      "city": "New York",
      "state": "NY",
      "zip": "10036",
      "distance": 8.45,
      "lon": -73.98866,
      "lat": 40.756581,
      "theaterChainName": "AMC Theatres",
      "ticketType": "STANDARD"
    },
    {
      "id": 2820,
      "tribuneTheaterId": 9074,
      "providerTheaterId": "",
      "name": "Regal E-Walk Stadium 13",
      "address": "247 W. 42nd St.",
      "city": "New York",
      "state": "NY",
      "zip": "10036",
      "distance": 8.49,
      "lon": -73.989113,
      "lat": 40.757082,
      "theaterChainName": "Regal Cinemas",
      "ticketType": "STANDARD"
    },
    {
      "id": 4601,
      "tribuneTheaterId": 9770,
      "providerTheaterId": "",
      "name": "City Cinemas Beekman Theatre",
      "address": "1271 Second Ave.",
      "city": "New York",
      "state": "NY",
      "zip": "10021",
      "distance": 8.73,
      "lon": -73.961008,
      "lat": 40.765277,
      "theaterChainName": "Reading International, Inc",
      "ticketType": "STANDARD"
    },
    {
      "id": 570,
      "tribuneTheaterId": 6648,
      "providerTheaterId": "",
      "name": "City Cinemas Paris Theatre",
      "address": "4 W. 58th St.",
      "city": "New York",
      "state": "NY",
      "zip": "10019",
      "distance": 8.77,
      "lon": -73.974713,
      "lat": 40.764145,
      "theaterChainName": "Reading International, Inc",
      "ticketType": "STANDARD"
    },
    {
      "id": 2680,
      "tribuneTheaterId": 2955,
      "providerTheaterId": "",
      "name": "Kew Gardens Cinemas",
      "address": "81-05 Lefferts Blvd.",
      "city": "Kew Gardens",
      "state": "NY",
      "zip": "11415",
      "distance": 7.49,
      "lon": -73.829847,
      "lat": 40.709138,
      "theaterChainName": "Cobble Hill Cinemas",
      "ticketType": "STANDARD"
    },
    {
      "id": 178,
      "tribuneTheaterId": 7790,
      "providerTheaterId": "2184",
      "name": "AMC Loews Newport Centre 11",
      "address": "30-300 Mall Drive W.",
      "city": "Jersey City",
      "state": "NJ",
      "zip": "07303",
      "distance": 7.96,
      "lon": -74.038024,
      "lat": 40.728039,
      "theaterChainName": "AMC Theatres",
      "ticketType": "STANDARD"
    },
    {
      "id": 574,
      "tribuneTheaterId": 2976,
      "providerTheaterId": "",
      "name": "Lincoln Plaza Cinemas",
      "address": "1886 Broadway",
      "city": "New York",
      "state": "NY",
      "zip": "10023",
      "distance": 9.3,
      "lon": -73.98184,
      "lat": 40.770837,
      "theaterChainName": "Independent Chains",
      "ticketType": "STANDARD"
    },
    {
      "id": 539,
      "tribuneTheaterId": 2863,
      "providerTheaterId": "",
      "name": "City Cinemas 86th Street East",
      "address": "210 E. 86th St.",
      "city": "New York",
      "state": "NY",
      "zip": "10028",
      "distance": 9.59,
      "lon": -73.953339,
      "lat": 40.778375,
      "theaterChainName": "Reading International, Inc",
      "ticketType": "STANDARD"
    },
    {
      "id": 148,
      "tribuneTheaterId": 9039,
      "providerTheaterId": "2104",
      "name": "AMC Loews Orpheum 7",
      "address": "1538 Third Ave.",
      "city": "New York",
      "state": "NY",
      "zip": "10028",
      "distance": 9.65,
      "lon": -73.953855,
      "lat": 40.779304,
      "theaterChainName": "AMC Theatres",
      "ticketType": "STANDARD"
    },
    {
      "id": 5064,
      "tribuneTheaterId": 10447,
      "providerTheaterId": "",
      "name": "Film Society of Lincoln Center",
      "address": "144 W 65th St.",
      "city": "New York",
      "state": "NY",
      "zip": "10023",
      "distance": 9.5,
      "lon": -73.983597,
      "lat": 40.773499,
      "theaterChainName": "Independent Chains",
      "ticketType": "STANDARD"
    },
    {
      "id": 575,
      "tribuneTheaterId": 8099,
      "providerTheaterId": "",
      "name": "Film Society of Lincoln Center's Walter Reade Theater",
      "address": "165 W. 65th St.",
      "city": "New York",
      "state": "NY",
      "zip": "10023",
      "distance": 9.5,
      "lon": -73.983597,
      "lat": 40.773499,
      "theaterChainName": "Independent Chains",
      "ticketType": "STANDARD"
    },
    {
      "id": 151,
      "tribuneTheaterId": 9062,
      "providerTheaterId": "2116",
      "name": "AMC Loews Lincoln Square 13",
      "address": "1998 Broadway",
      "city": "New York",
      "state": "NY",
      "zip": "10023",
      "distance": 9.58,
      "lon": -73.98164,
      "lat": 40.774975,
      "theaterChainName": "AMC Theatres",
      "ticketType": "STANDARD"
    },
    {
      "id": 4832,
      "tribuneTheaterId": 10108,
      "providerTheaterId": "",
      "name": "Bow Tie Hoboken Cinemas",
      "address": "409-415 14th St.",
      "city": "Hoboken",
      "state": "NJ",
      "zip": "07030",
      "distance": 9.24,
      "lon": -74.0319,
      "lat": 40.7542,
      "theaterChainName": "Bow-Tie Cinemas",
      "ticketType": "STANDARD"
    }
  ]
}