{
  "theaters": [
    {
      "id": 110,
      "tribuneTheaterId": 7903,
      "providerTheaterId": "",
      "name": "UA Midway Stadium 9",
      "address": "108-22 Queens Blvd.",
      "city": "Forest Hills",
      "state": "NY",
      "zip": "11375",
      "distance": 1.37,
      "lon": -73.843419,
      "lat": 40.720823,
      "theaterChainName": "United Artists",
      "ticketType": "STANDARD"
    },
    {
      "id": 566,
      "tribuneTheaterId": 7948,
      "providerTheaterId": "",
      "name": "Cinemart Cinemas",
      "address": "106-03 Metropolitan Ave.",
      "city": "Forest Hills",
      "state": "NY",
      "zip": "11375",
      "distance": 2.08,
      "lon": -73.846874,
      "lat": 40.710038,
      "theaterChainName": "Independent Chains",
      "ticketType": "STANDARD"
    },
    {
      "id": 2460,
      "tribuneTheaterId": 9245,
      "providerTheaterId": "",
      "name": "College Point Multiplex Cinemas",
      "address": "2855 Ulmer St.",
      "city": "Whitestone",
      "state": "NY",
      "zip": "11357",
      "distance": 2.33,
      "lon": -73.835206,
      "lat": 40.771789,
      "theaterChainName": "National Amusements",
      "ticketType": "STANDARD"
    },
    {
      "id": 4206,
      "tribuneTheaterId": 4646,
      "providerTheaterId": "",
      "name": "Regal Atlas Park Stadium 8",
      "address": "Cooper Ave ",
      "city": "Glendale",
      "state": "NY",
      "zip": "11385",
      "distance": 2.4,
      "lon": -73.867639,
      "lat": 40.707906,
      "theaterChainName": "Regal Cinemas",
      "ticketType": "STANDARD"
    },
    {
      "id": 2680,
      "tribuneTheaterId": 2955,
      "providerTheaterId": "",
      "name": "Kew Gardens Cinemas",
      "address": "81-05 Lefferts Blvd.",
      "city": "Kew Gardens",
      "state": "NY",
      "zip": "11415",
      "distance": 2.38,
      "lon": -73.829847,
      "lat": 40.709138,
      "theaterChainName": "Cobble Hill Cinemas",
      "ticketType": "STANDARD"
    },
    {
      "id": 4681,
      "tribuneTheaterId": 9885,
      "providerTheaterId": "",
      "name": "Phoenix Theatre Bombay",
      "address": "6825 Fresh Meadow Lane",
      "city": "Flushing",
      "state": "NY",
      "zip": "11365",
      "distance": 2.95,
      "lon": -73.794359,
      "lat": 40.733047,
      "theaterChainName": "Independent Chains",
      "ticketType": "STANDARD"
    },
    {
      "id": 3512,
      "tribuneTheaterId": 5152,
      "providerTheaterId": "",
      "name": "Jamaica Multiplex Cinemas",
      "address": "159-02 Jamaica Ave.",
      "city": "Jamaica",
      "state": "NY",
      "zip": "11432",
      "distance": 3.66,
      "lon": -73.799828,
      "lat": 40.703223,
      "theaterChainName": "National Amusements",
      "ticketType": "STANDARD"
    },
    {
      "id": 824,
      "tribuneTheaterId": 7620,
      "providerTheaterId": "",
      "name": "Linden Blvd. Multiplex Cinemas",
      "address": "2784 Linden Blvd.",
      "city": "Brooklyn",
      "state": "NY",
      "zip": "11208",
      "distance": 4.91,
      "lon": -73.8614,
      "lat": 40.6694,
      "theaterChainName": "National Amusements",
      "ticketType": "STANDARD"
    },
    {
      "id": 3233,
      "tribuneTheaterId": 5712,
      "providerTheaterId": "",
      "name": "UA Kaufman Astoria Stadium 14",
      "address": "35-30 38th St.",
      "city": "Astoria",
      "state": "NY",
      "zip": "11101",
      "distance": 3.99,
      "lon": -73.923622,
      "lat": 40.755206,
      "theaterChainName": "United Artists",
      "ticketType": "STANDARD"
    },
    {
      "id": 152,
      "tribuneTheaterId": 8451,
      "providerTheaterId": "2130",
      "name": "AMC Loews Bay Terrace 6",
      "address": "211-01  26th Ave.",
      "city": "Bayside",
      "state": "NY",
      "zip": "11360",
      "distance": 4.59,
      "lon": -73.778963,
      "lat": 40.77898,
      "theaterChainName": "AMC Theatres",
      "ticketType": "STANDARD"
    },
    {
      "id": 5965,
      "tribuneTheaterId": 11401,
      "providerTheaterId": "",
      "name": "Syndicated",
      "address": "40 Bogart Street",
      "city": "Brooklyn",
      "state": "NY",
      "zip": "11206",
      "distance": 4.97,
      "lon": -73.93286,
      "lat": 40.704962,
      "theaterChainName": "Independent Chains",
      "ticketType": "STANDARD"
    },
    {
      "id": 539,
      "tribuneTheaterId": 2863,
      "providerTheaterId": "",
      "name": "City Cinemas 86th Street East",
      "address": "210 E. 86th St.",
      "city": "New York",
      "state": "NY",
      "zip": "10028",
      "distance": 6.02,
      "lon": -73.953339,
      "lat": 40.778375,
      "theaterChainName": "Reading International, Inc",
      "ticketType": "STANDARD"
    },
    {
      "id": 148,
      "tribuneTheaterId": 9039,
      "providerTheaterId": "2104",
      "name": "AMC Loews Orpheum 7",
      "address": "1538 Third Ave.",
      "city": "New York",
      "state": "NY",
      "zip": "10028",
      "distance": 6.08,
      "lon": -73.953855,
      "lat": 40.779304,
      "theaterChainName": "AMC Theatres",
      "ticketType": "STANDARD"
    },
    {
      "id": 320,
      "tribuneTheaterId": 6015,
      "providerTheaterId": "",
      "name": "Concourse Plaza Multiplex Cinemas",
      "address": "214 E. 161st St.",
      "city": "Bronx",
      "state": "NY",
      "zip": "10451",
      "distance": 7.02,
      "lon": -73.920736,
      "lat": 40.826296,
      "theaterChainName": "National Amusements",
      "ticketType": "STANDARD"
    },
    {
      "id": 109,
      "tribuneTheaterId": 8449,
      "providerTheaterId": "",
      "name": "Movieworld At Douglaston",
      "address": "242-02 61st Ave.",
      "city": "Douglaston",
      "state": "NY",
      "zip": "11362",
      "distance": 5.9,
      "lon": -73.738934,
      "lat": 40.754707,
      "theaterChainName": "Independent Chains",
      "ticketType": "STANDARD"
    },
    {
      "id": 5284,
      "tribuneTheaterId": 10718,
      "providerTheaterId": "",
      "name": "Williamsburg Cinemas",
      "address": "217 Grand St.",
      "city": "Brooklyn",
      "state": "NY",
      "zip": "11211",
      "distance": 6.03,
      "lon": -73.9599,
      "lat": 40.7139,
      "theaterChainName": "Independent Chains",
      "ticketType": "STANDARD"
    },
    {
      "id": 4601,
      "tribuneTheaterId": 9770,
      "providerTheaterId": "",
      "name": "City Cinemas Beekman Theatre",
      "address": "1271 Second Ave.",
      "city": "New York",
      "state": "NY",
      "zip": "10021",
      "distance": 6.07,
      "lon": -73.961008,
      "lat": 40.765277,
      "theaterChainName": "Reading International, Inc",
      "ticketType": "STANDARD"
    },
    {
      "id": 5777,
      "tribuneTheaterId": 11217,
      "providerTheaterId": "",
      "name": "Videology Cinema",
      "address": "308 Bedford Ave.",
      "city": "Brooklyn",
      "state": "NY",
      "zip": "11249",
      "distance": 6.13,
      "lon": -73.961814,
      "lat": 40.713864,
      "theaterChainName": "Independent Chains",
      "ticketType": "STANDARD"
    },
    {
      "id": 5060,
      "tribuneTheaterId": 10443,
      "providerTheaterId": "",
      "name": "Nitehawk Cinema",
      "address": "136 Metropolitan Ave.",
      "city": "Brooklyn",
      "state": "NY",
      "zip": "11249",
      "distance": 6.12,
      "lon": -73.962506,
      "lat": 40.716121,
      "theaterChainName": "Independent Chains",
      "ticketType": "STANDARD"
    },
    {
      "id": 3044,
      "tribuneTheaterId": 9040,
      "providerTheaterId": "2304",
      "name": "AMC Magic Johnson Harlem 9",
      "address": "2309 Frederick Douglass Blvd.",
      "city": "New York",
      "state": "NY",
      "zip": "10027",
      "distance": 7.18,
      "lon": -73.951791,
      "lat": 40.809678,
      "theaterChainName": "AMC Theatres",
      "ticketType": "STANDARD"
    },
    {
      "id": 2472,
      "tribuneTheaterId": 9151,
      "providerTheaterId": "2195",
      "name": "AMC Loews Kips Bay 15",
      "address": "570 Second Ave.",
      "city": "New York",
      "state": "NY",
      "zip": "10016",
      "distance": 6.64,
      "lon": -73.9767,
      "lat": 40.7435,
      "theaterChainName": "AMC Theatres",
      "ticketType": "STANDARD"
    },
    {
      "id": 570,
      "tribuneTheaterId": 6648,
      "providerTheaterId": "",
      "name": "City Cinemas Paris Theatre",
      "address": "4 W. 58th St.",
      "city": "New York",
      "state": "NY",
      "zip": "10019",
      "distance": 6.74,
      "lon": -73.974713,
      "lat": 40.764145,
      "theaterChainName": "Reading International, Inc",
      "ticketType": "STANDARD"
    },
    {
      "id": 562,
      "tribuneTheaterId": 7336,
      "providerTheaterId": "866",
      "name": "AMC Bay Plaza Cinema 13",
      "address": "2210 Bartow Ave.",
      "city": "Bronx",
      "state": "NY",
      "zip": "10475",
      "distance": 8.87,
      "lon": -73.825142,
      "lat": 40.866991,
      "theaterChainName": "AMC Theatres",
      "ticketType": "STANDARD"
    },
    {
      "id": 1145,
      "tribuneTheaterId": 5913,
      "providerTheaterId": "",
      "name": "Bow Tie Squire Cinemas",
      "address": "115 Middle Neck Rd.",
      "city": "Great Neck",
      "state": "NY",
      "zip": "11021",
      "distance": 7.16,
      "lon": -73.730058,
      "lat": 40.789779,
      "theaterChainName": "Bow-Tie Cinemas",
      "ticketType": "STANDARD"
    },
    {
      "id": 574,
      "tribuneTheaterId": 2976,
      "providerTheaterId": "",
      "name": "Lincoln Plaza Cinemas",
      "address": "1886 Broadway",
      "city": "New York",
      "state": "NY",
      "zip": "10023",
      "distance": 7.22,
      "lon": -73.98184,
      "lat": 40.770837,
      "theaterChainName": "Independent Chains",
      "ticketType": "STANDARD"
    },
    {
      "id": 151,
      "tribuneTheaterId": 9062,
      "providerTheaterId": "2116",
      "name": "AMC Loews Lincoln Square 13",
      "address": "1998 Broadway",
      "city": "New York",
      "state": "NY",
      "zip": "10023",
      "distance": 7.3,
      "lon": -73.98164,
      "lat": 40.774975,
      "theaterChainName": "AMC Theatres",
      "ticketType": "STANDARD"
    },
    {
      "id": 538,
      "tribuneTheaterId": 3034,
      "providerTheaterId": "",
      "name": "City Cinemas Village East",
      "address": "181-189 Second Ave.",
      "city": "New York",
      "state": "NY",
      "zip": "10003",
      "distance": 7.16,
      "lon": -73.98617,
      "lat": 40.73092,
      "theaterChainName": "Reading International, Inc",
      "ticketType": "STANDARD"
    },
    {
      "id": 5064,
      "tribuneTheaterId": 10447,
      "providerTheaterId": "",
      "name": "Film Society of Lincoln Center",
      "address": "144 W 65th St.",
      "city": "New York",
      "state": "NY",
      "zip": "10023",
      "distance": 7.37,
      "lon": -73.983597,
      "lat": 40.773499,
      "theaterChainName": "Independent Chains",
      "ticketType": "STANDARD"
    },
    {
      "id": 575,
      "tribuneTheaterId": 8099,
      "providerTheaterId": "",
      "name": "Film Society of Lincoln Center's Walter Reade Theater",
      "address": "165 W. 65th St.",
      "city": "New York",
      "state": "NY",
      "zip": "10023",
      "distance": 7.37,
      "lon": -73.983597,
      "lat": 40.773499,
      "theaterChainName": "Independent Chains",
      "ticketType": "STANDARD"
    },
    {
      "id": 2746,
      "tribuneTheaterId": 2576,
      "providerTheaterId": "",
      "name": "Bam Rose Cinemas",
      "address": "30 Lafayette Ave.",
      "city": "Brooklyn",
      "state": "NY",
      "zip": "11217",
      "distance": 7.64,
      "lon": -73.977703,
      "lat": 40.68645,
      "theaterChainName": "Independent Chains",
      "ticketType": "STANDARD"
    },
    {
      "id": 149,
      "tribuneTheaterId": 9112,
      "providerTheaterId": "2110",
      "name": "AMC Loews Village 7",
      "address": "66 3rd Ave. (11th St.)",
      "city": "New York",
      "state": "NY",
      "zip": "10003",
      "distance": 7.29,
      "lon": -73.988758,
      "lat": 40.731499,
      "theaterChainName": "AMC Theatres",
      "ticketType": "STANDARD"
    },
    {
      "id": 2986,
      "tribuneTheaterId": 7503,
      "providerTheaterId": "552",
      "name": "AMC Empire 25",
      "address": "234 W. 42nd St.",
      "city": "New York",
      "state": "NY",
      "zip": "10036",
      "distance": 7.35,
      "lon": -73.98866,
      "lat": 40.756581,
      "theaterChainName": "AMC Theatres",
      "ticketType": "STANDARD"
    },
    {
      "id": 150,
      "tribuneTheaterId": 9084,
      "providerTheaterId": "2112",
      "name": "AMC Loews 19th Street East 6",
      "address": "890 Broadway",
      "city": "New York",
      "state": "NY",
      "zip": "10003",
      "distance": 7.32,
      "lon": -73.98977,
      "lat": 40.738557,
      "theaterChainName": "AMC Theatres",
      "ticketType": "STANDARD"
    },
    {
      "id": 2820,
      "tribuneTheaterId": 9074,
      "providerTheaterId": "",
      "name": "Regal E-Walk Stadium 13",
      "address": "247 W. 42nd St.",
      "city": "New York",
      "state": "NY",
      "zip": "10036",
      "distance": 7.38,
      "lon": -73.989113,
      "lat": 40.757082,
      "theaterChainName": "Regal Cinemas",
      "ticketType": "STANDARD"
    },
    {
      "id": 1609,
      "tribuneTheaterId": 7572,
      "providerTheaterId": "",
      "name": "Regal Union Square Stadium 14",
      "address": "850 Broadway",
      "city": "New York",
      "state": "NY",
      "zip": "10003",
      "distance": 7.37,
      "lon": -73.990574,
      "lat": 40.734049,
      "theaterChainName": "Regal Cinemas",
      "ticketType": "STANDARD"
    },
    {
      "id": 5894,
      "tribuneTheaterId": 11315,
      "providerTheaterId": "",
      "name": "Metrograph",
      "address": "7 Ludlow St.",
      "city": "New York",
      "state": "NY",
      "zip": "10002",
      "distance": 7.59,
      "lon": -73.991181,
      "lat": 40.715078,
      "theaterChainName": "Independent Chains",
      "ticketType": "STANDARD"
    },
    {
      "id": 571,
      "tribuneTheaterId": 8448,
      "providerTheaterId": "",
      "name": "Cinema Village 12th Street",
      "address": "22 E. 12th St.",
      "city": "New York",
      "state": "NY",
      "zip": "10003",
      "distance": 7.52,
      "lon": -73.993429,
      "lat": 40.734077,
      "theaterChainName": "Independent Chains",
      "ticketType": "STANDARD"
    },
    {
      "id": 3442,
      "tribuneTheaterId": 9013,
      "providerTheaterId": "2120",
      "name": "AMC Loews West 34th Street 14",
      "address": "312 W. 34th St.",
      "city": "New York",
      "state": "NY",
      "zip": "10001",
      "distance": 7.61,
      "lon": -73.994396,
      "lat": 40.75251,
      "theaterChainName": "AMC Theatres",
      "ticketType": "STANDARD"
    },
    {
      "id": 573,
      "tribuneTheaterId": 7785,
      "providerTheaterId": "",
      "name": "Quad Cinema",
      "address": "34 W. 13th St.",
      "city": "New York",
      "state": "NY",
      "zip": "10011",
      "distance": 7.65,
      "lon": -73.996002,
      "lat": 40.735978,
      "theaterChainName": "Independent Chains",
      "ticketType": "STANDARD"
    },
    {
      "id": 540,
      "tribuneTheaterId": 2975,
      "providerTheaterId": "",
      "name": "City Cinemas Angelika Film Center",
      "address": "18 W. Houston St.",
      "city": "New York",
      "state": "NY",
      "zip": "10012",
      "distance": 7.77,
      "lon": -73.997283,
      "lat": 40.725811,
      "theaterChainName": "Reading International, Inc",
      "ticketType": "STANDARD"
    }
  ]
}