{
  "theaters": [
    {
      "id": 371,
      "tribuneTheaterId": 5314,
      "providerTheaterId": "364",
      "name": "AMC Potomac Mills 18",
      "address": "2700 Potomac Mills Circle",
      "city": "Woodbridge",
      "state": "VA",
      "zip": "22192",
      "distance": 2.19,
      "lon": -77.29738,
      "lat": 38.642383,
      "theaterChainName": "AMC Theatres",
      "ticketType": "STANDARD"
    },
    {
      "id": 5506,
      "tribuneTheaterId": 10970,
      "providerTheaterId": "",
      "name": "Springfield Town Center 12",
      "address": "6859 Springfield Town Center",
      "city": "Springfield",
      "state": "VA",
      "zip": "22150",
      "distance": 10.89,
      "lon": -77.1774,
      "lat": 38.7738,
      "theaterChainName": "Regal Cinemas",
      "ticketType": "STANDARD"
    },
    {
      "id": 4135,
      "tribuneTheaterId": 4910,
      "providerTheaterId": "",
      "name": "Regal Kingstowne Stadium 16",
      "address": "5910 Kingstowne Towne Center",
      "city": "Alexandria",
      "state": "VA",
      "zip": "22315",
      "distance": 11.8,
      "lon": -77.138325,
      "lat": 38.772012,
      "theaterChainName": "Regal Cinemas",
      "ticketType": "STANDARD"
    },
    {
      "id": 600,
      "tribuneTheaterId": 6459,
      "providerTheaterId": "",
      "name": "University Mall Theatres",
      "address": "10659 Braddock Road",
      "city": "Fairfax",
      "state": "VA",
      "zip": "22032",
      "distance": 13.79,
      "lon": -77.314361,
      "lat": 38.82505,
      "theaterChainName": "Independent Chains",
      "ticketType": "STANDARD"
    },
    {
      "id": 2670,
      "tribuneTheaterId": 6528,
      "providerTheaterId": "",
      "name": "Cinema Arts Theatre",
      "address": "9650 Main St",
      "city": "Fairfax",
      "state": "VA",
      "zip": "22031",
      "distance": 14.66,
      "lon": -77.2758,
      "lat": 38.8418,
      "theaterChainName": "Independent Chains",
      "ticketType": "STANDARD"
    },
    {
      "id": 670,
      "tribuneTheaterId": 8504,
      "providerTheaterId": "",
      "name": "Regal Aquia 10",
      "address": "2850 Jefferson Davis Hwy",
      "city": "Stafford",
      "state": "VA",
      "zip": "22554",
      "distance": 13.9,
      "lon": -77.400908,
      "lat": 38.461625,
      "theaterChainName": "Regal Cinemas",
      "ticketType": "STANDARD"
    },
    {
      "id": 599,
      "tribuneTheaterId": 6735,
      "providerTheaterId": "",
      "name": "Manassas Cinemas",
      "address": "8890 Mathis Ave.",
      "city": "Manassas",
      "state": "VA",
      "zip": "20110",
      "distance": 14.27,
      "lon": -77.463014,
      "lat": 38.762356,
      "theaterChainName": "Independent Chains",
      "ticketType": "STANDARD"
    },
    {
      "id": 5222,
      "tribuneTheaterId": 10646,
      "providerTheaterId": "",
      "name": "Angelika Film Center-Mosaic",
      "address": "2911 District Avenue",
      "city": "Fairfax",
      "state": "VA",
      "zip": "22031",
      "distance": 16.8,
      "lon": -77.229466,
      "lat": 38.872027,
      "theaterChainName": "Reading International, Inc",
      "ticketType": "STANDARD"
    },
    {
      "id": 3657,
      "tribuneTheaterId": 5147,
      "providerTheaterId": "",
      "name": "Fairfax Corner 14",
      "address": "11900 Palace Way",
      "city": "Fairfax",
      "state": "VA",
      "zip": "22030",
      "distance": 16.66,
      "lon": -77.356731,
      "lat": 38.859044,
      "theaterChainName": "Cinemark",
      "ticketType": "STANDARD"
    },
    {
      "id": 3225,
      "tribuneTheaterId": 8913,
      "providerTheaterId": "337",
      "name": "AMC Hoffman Center 22",
      "address": "206 Swamp Fox Rd.",
      "city": "Alexandria",
      "state": "VA",
      "zip": "22314",
      "distance": 15.69,
      "lon": -77.070537,
      "lat": 38.802379,
      "theaterChainName": "AMC Theatres",
      "ticketType": "STANDARD"
    },
    {
      "id": 503,
      "tribuneTheaterId": 7139,
      "providerTheaterId": "",
      "name": "Regal Fairfax Town Center",
      "address": "4110 W Ox Road",
      "city": "Fairfax",
      "state": "VA",
      "zip": "22033",
      "distance": 17.39,
      "lon": -77.367276,
      "lat": 38.867344,
      "theaterChainName": "Regal Cinemas",
      "ticketType": "STANDARD"
    },
    {
      "id": 278,
      "tribuneTheaterId": 9190,
      "providerTheaterId": "",
      "name": "Rave Motion Pictures Centreville 12",
      "address": "6201 Multiplex Dr",
      "city": "Centreville",
      "state": "VA",
      "zip": "20121",
      "distance": 16.83,
      "lon": -77.4377,
      "lat": 38.8303,
      "theaterChainName": "Cinemark",
      "ticketType": "STANDARD"
    },
    {
      "id": 204,
      "tribuneTheaterId": 7322,
      "providerTheaterId": "2798",
      "name": "AMC Loews Shirlington 7",
      "address": "2772 South Randolph St.",
      "city": "Arlington",
      "state": "VA",
      "zip": "22206",
      "distance": 17.26,
      "lon": -77.089101,
      "lat": 38.841279,
      "theaterChainName": "AMC Theatres",
      "ticketType": "STANDARD"
    },
    {
      "id": 2532,
      "tribuneTheaterId": 8881,
      "providerTheaterId": "",
      "name": "Regal Ballston Common Stadium 12",
      "address": "671 N. Glebe Road",
      "city": "Arlington",
      "state": "VA",
      "zip": "22203",
      "distance": 18.96,
      "lon": -77.111583,
      "lat": 38.878807,
      "theaterChainName": "Regal Cinemas",
      "ticketType": "STANDARD"
    },
    {
      "id": 4108,
      "tribuneTheaterId": 9046,
      "providerTheaterId": "366",
      "name": "AMC Tysons Corner 16",
      "address": "7850 Tysons Corner Center",
      "city": "West McLean",
      "state": "VA",
      "zip": "22102",
      "distance": 20,
      "lon": -77.218936,
      "lat": 38.917734,
      "theaterChainName": "AMC Theatres",
      "ticketType": "STANDARD"
    },
    {
      "id": 1606,
      "tribuneTheaterId": 5629,
      "providerTheaterId": "",
      "name": "Regal Potomac Yard Stadium 16",
      "address": "3575 Jefferson Davis Hwy.",
      "city": "Alexandria",
      "state": "VA",
      "zip": "22305",
      "distance": 18.32,
      "lon": -77.048128,
      "lat": 38.837369,
      "theaterChainName": "Regal Cinemas",
      "ticketType": "STANDARD"
    },
    {
      "id": 369,
      "tribuneTheaterId": 5313,
      "providerTheaterId": "362",
      "name": "AMC Courthouse Plaza 8",
      "address": "2150 Clarendon Blvd",
      "city": "Arlington",
      "state": "VA",
      "zip": "22201",
      "distance": 20.3,
      "lon": -77.085165,
      "lat": 38.890179,
      "theaterChainName": "AMC Theatres",
      "ticketType": "STANDARD"
    },
    {
      "id": 2481,
      "tribuneTheaterId": 5666,
      "providerTheaterId": "",
      "name": "Regal Manassas Stadium 14 & IMAX",
      "address": "11380 Bulloch Dr",
      "city": "Manassas",
      "state": "VA",
      "zip": "20109",
      "distance": 18.79,
      "lon": -77.529927,
      "lat": 38.802038,
      "theaterChainName": "Regal Cinemas",
      "ticketType": "STANDARD"
    },
    {
      "id": 5701,
      "tribuneTheaterId": 11138,
      "providerTheaterId": "339",
      "name": "AMC Rivertowne 12",
      "address": "6075 Oxon Hill Rd.",
      "city": "Oxon Hill",
      "state": "MD",
      "zip": "20745",
      "distance": 19.31,
      "lon": -76.9801,
      "lat": 38.8044,
      "theaterChainName": "AMC Theatres",
      "ticketType": "STANDARD"
    },
    {
      "id": 203,
      "tribuneTheaterId": 8757,
      "providerTheaterId": "2794",
      "name": "AMC Loews St. Charles Town Center 9",
      "address": "11115 Mall Circle",
      "city": "Waldorf",
      "state": "MD",
      "zip": "20601",
      "distance": 17.92,
      "lon": -76.928201,
      "lat": 38.620089,
      "theaterChainName": "AMC Theatres",
      "ticketType": "STANDARD"
    },
    {
      "id": 3581,
      "tribuneTheaterId": 7640,
      "providerTheaterId": "2654",
      "name": "AMC Loews Georgetown 14",
      "address": "3111 K Street N.W.",
      "city": "Washington",
      "state": "DC",
      "zip": "20007",
      "distance": 21.64,
      "lon": -77.06265,
      "lat": 38.902721,
      "theaterChainName": "AMC Theatres",
      "ticketType": "STANDARD"
    },
    {
      "id": 277,
      "tribuneTheaterId": 9264,
      "providerTheaterId": "",
      "name": "Bow Tie Cinemas Reston Town Center 13",
      "address": "11940 Market St",
      "city": "Reston",
      "state": "VA",
      "zip": "20190",
      "distance": 23.33,
      "lon": -77.358103,
      "lat": 38.958848,
      "theaterChainName": "Bow-Tie Cinemas",
      "ticketType": "STANDARD"
    },
    {
      "id": 5345,
      "tribuneTheaterId": 10783,
      "providerTheaterId": "367",
      "name": "AMC Worldgate 9",
      "address": "13025 Worldgate Dr.",
      "city": "Herndon",
      "state": "VA",
      "zip": "20170",
      "distance": 23.85,
      "lon": -77.3997,
      "lat": 38.9576,
      "theaterChainName": "AMC Theatres",
      "ticketType": "STANDARD"
    },
    {
      "id": 3898,
      "tribuneTheaterId": 4667,
      "providerTheaterId": "",
      "name": "Regal Gallery Place Stadium 14",
      "address": "707 Seventh Street NW",
      "city": "Washington",
      "state": "DC",
      "zip": "20001",
      "distance": 22.56,
      "lon": -77.021728,
      "lat": 38.898534,
      "theaterChainName": "Regal Cinemas",
      "ticketType": "STANDARD"
    },
    {
      "id": 207,
      "tribuneTheaterId": 8452,
      "providerTheaterId": "2767",
      "name": "AMC Loews Uptown 1",
      "address": "3426 Connecticut Ave. NW",
      "city": "Washington",
      "state": "DC",
      "zip": "20008",
      "distance": 23.7,
      "lon": -77.058405,
      "lat": 38.934945,
      "theaterChainName": "AMC Theatres",
      "ticketType": "STANDARD"
    },
    {
      "id": 206,
      "tribuneTheaterId": 7810,
      "providerTheaterId": "886",
      "name": "AMC Mazza Gallerie",
      "address": "5300 Wisconsin Ave., NW",
      "city": "Washington",
      "state": "DC",
      "zip": "20015",
      "distance": 24.61,
      "lon": -77.0848,
      "lat": 38.959,
      "theaterChainName": "AMC Theatres",
      "ticketType": "STANDARD"
    },
    {
      "id": 4701,
      "tribuneTheaterId": 9915,
      "providerTheaterId": "",
      "name": "Marlow 6 Theatre",
      "address": "3899 Branch Ave.",
      "city": "Temple Hills",
      "state": "MD",
      "zip": "20748",
      "distance": 22.16,
      "lon": -76.944863,
      "lat": 38.835906,
      "theaterChainName": "Phoenix Theatres",
      "ticketType": "STANDARD"
    },
    {
      "id": 5394,
      "tribuneTheaterId": 10831,
      "providerTheaterId": "",
      "name": "Regal Virginia Gateway Stadium 16 & RPX",
      "address": "8001 Gateway Promenade Place",
      "city": "Gainesville",
      "state": "VA",
      "zip": "20155",
      "distance": 21.68,
      "lon": -77.6168,
      "lat": 38.8004,
      "theaterChainName": "Regal Cinemas",
      "ticketType": "STANDARD"
    },
    {
      "id": 205,
      "tribuneTheaterId": 6579,
      "providerTheaterId": "",
      "name": "The Avalon Theatre",
      "address": "5612 Connecticut Ave. NW",
      "city": "Washington",
      "state": "DC",
      "zip": "20015",
      "distance": 25.2,
      "lon": -77.076103,
      "lat": 38.965336,
      "theaterChainName": "Independent Chains",
      "ticketType": "STANDARD"
    },
    {
      "id": 5494,
      "tribuneTheaterId": 10950,
      "providerTheaterId": "",
      "name": "Angelika Pop-Up at Union Market",
      "address": "550 Penn St",
      "city": "Washington",
      "state": "DC",
      "zip": "20002",
      "distance": 24.01,
      "lon": -76.99621,
      "lat": 38.910025,
      "theaterChainName": "Reading International, Inc",
      "ticketType": "STANDARD"
    },
    {
      "id": 502,
      "tribuneTheaterId": 7741,
      "providerTheaterId": "",
      "name": "Regal Bethesda",
      "address": "7272 Wisconsin Ave.",
      "city": "Bethesda",
      "state": "MD",
      "zip": "20814",
      "distance": 25.92,
      "lon": -77.093731,
      "lat": 38.98206,
      "theaterChainName": "Regal Cinemas",
      "ticketType": "STANDARD"
    },
    {
      "id": 5343,
      "tribuneTheaterId": 10780,
      "providerTheaterId": "",
      "name": "Xscape 14",
      "address": "7710 Matapeake Business Drive",
      "city": "Brandywine",
      "state": "MD",
      "zip": "20613",
      "distance": 21.19,
      "lon": -76.8715,
      "lat": 38.6749,
      "theaterChainName": "Independent Chains",
      "ticketType": "STANDARD"
    },
    {
      "id": 675,
      "tribuneTheaterId": 8505,
      "providerTheaterId": "",
      "name": "Regal Fredericksburg 15",
      "address": "3301 Plank Road Route 3W",
      "city": "Fredericksburg",
      "state": "VA",
      "zip": "22401",
      "distance": 26.95,
      "lon": -77.5157,
      "lat": 38.2953,
      "theaterChainName": "Regal Cinemas",
      "ticketType": "STANDARD"
    },
    {
      "id": 4913,
      "tribuneTheaterId": 10230,
      "providerTheaterId": "",
      "name": "Paragon Village 12",
      "address": "51 Towne Centre Blvd.",
      "city": "Fredericksburg",
      "state": "VA",
      "zip": "22407",
      "distance": 27.18,
      "lon": -77.51024,
      "lat": 38.288943,
      "theaterChainName": "Paragon Theaters",
      "ticketType": "STANDARD"
    },
    {
      "id": 5546,
      "tribuneTheaterId": 10987,
      "providerTheaterId": "",
      "name": "Dulles Town Center St. 10",
      "address": "21010 Dulles Town Circle",
      "city": "Sterling",
      "state": "VA",
      "zip": "20164",
      "distance": 28.96,
      "lon": -77.4242,
      "lat": 39.0292,
      "theaterChainName": "Regal Cinemas",
      "ticketType": "STANDARD"
    },
    {
      "id": 501,
      "tribuneTheaterId": 7566,
      "providerTheaterId": "",
      "name": "Regal Countryside Stadium 20",
      "address": "45980 Regal Plaza",
      "city": "Sterling",
      "state": "VA",
      "zip": "20165",
      "distance": 29.26,
      "lon": -77.409014,
      "lat": 39.037171,
      "theaterChainName": "Regal Cinemas",
      "ticketType": "STANDARD"
    },
    {
      "id": 3859,
      "tribuneTheaterId": 790,
      "providerTheaterId": "",
      "name": "AFI Silver Theatre Cultural Center",
      "address": "8633 Colesville Rd",
      "city": "Silver Spring",
      "state": "MD",
      "zip": "20910",
      "distance": 28.3,
      "lon": -77.025543,
      "lat": 38.996583,
      "theaterChainName": "Independent Chains",
      "ticketType": "STANDARD"
    },
    {
      "id": 3844,
      "tribuneTheaterId": 4911,
      "providerTheaterId": "",
      "name": "Regal Majestic Cinema 20 & IMAX",
      "address": "900 Ellsworth Drive",
      "city": "Silver Spring",
      "state": "MD",
      "zip": "20910",
      "distance": 28.3,
      "lon": -77.025409,
      "lat": 38.996574,
      "theaterChainName": "Regal Cinemas",
      "ticketType": "STANDARD"
    },
    {
      "id": 5704,
      "tribuneTheaterId": 11141,
      "providerTheaterId": "",
      "name": "Starplex Loudoun Station Luxury Cinemas 11",
      "address": "43751 Central Station Drive",
      "city": "Ashburn",
      "state": "VA",
      "zip": "20147",
      "distance": 28.76,
      "lon": -77.48762,
      "lat": 39.006507,
      "theaterChainName": "AMC Theatres",
      "ticketType": "STANDARD"
    },
    {
      "id": 4381,
      "tribuneTheaterId": 9423,
      "providerTheaterId": "",
      "name": "Fox Stadium 16 & IMAX",
      "address": "22875 Brambleton Plaza",
      "city": "Ashburn",
      "state": "VA",
      "zip": "20148",
      "distance": 28.68,
      "lon": -77.537361,
      "lat": 38.984377,
      "theaterChainName": "Regal Cinemas",
      "ticketType": "STANDARD"
    }
  ]
}