{
  "theaters": [
    {
      "id": 4241,
      "tribuneTheaterId": 4958,
      "providerTheaterId": "6149",
      "name": "AMC Showplace Cicero 14",
      "address": "4779 W. Cermak Road",
      "city": "Cicero",
      "state": "IL",
      "zip": "60804",
      "distance": 3.49,
      "lon": -87.742825,
      "lat": 41.849138,
      "theaterChainName": "AMC Theatres",
      "ticketType": "STANDARD"
    },
    {
      "id": 1397,
      "tribuneTheaterId": 2702,
      "providerTheaterId": "",
      "name": "Gene Siskel Film Center",
      "address": "164 State St.",
      "city": "Chicago",
      "state": "IL",
      "zip": "60601",
      "distance": 4.63,
      "lon": -87.628309,
      "lat": 41.884861,
      "theaterChainName": "Independent Chains",
      "ticketType": "STANDARD"
    },
    {
      "id": 215,
      "tribuneTheaterId": 5193,
      "providerTheaterId": "2565",
      "name": "AMC Loews 600 North Michigan 9",
      "address": "600 N. Michigan Ave.",
      "city": "Chicago",
      "state": "IL",
      "zip": "60611",
      "distance": 5.15,
      "lon": -87.625153,
      "lat": 41.892359,
      "theaterChainName": "AMC Theatres",
      "ticketType": "STANDARD"
    },
    {
      "id": 3569,
      "tribuneTheaterId": 5316,
      "providerTheaterId": "133",
      "name": "AMC River East 21",
      "address": "322 E. Illinois St.",
      "city": "Chicago",
      "state": "IL",
      "zip": "60611",
      "distance": 5.28,
      "lon": -87.61902,
      "lat": 41.891441,
      "theaterChainName": "AMC Theatres",
      "ticketType": "STANDARD"
    },
    {
      "id": 54,
      "tribuneTheaterId": 8082,
      "providerTheaterId": "",
      "name": "Regal Webster Place 11",
      "address": "1471 W. Webster Ave.",
      "city": "Chicago",
      "state": "IL",
      "zip": "60614",
      "distance": 6.35,
      "lon": -87.664796,
      "lat": 41.921184,
      "theaterChainName": "Regal Cinemas",
      "ticketType": "STANDARD"
    },
    {
      "id": 211,
      "tribuneTheaterId": 7650,
      "providerTheaterId": "827",
      "name": "AMC Ford City 14",
      "address": "7601 S. Cicero Ave.",
      "city": "Chicago",
      "state": "IL",
      "zip": "60652",
      "distance": 5.97,
      "lon": -87.733212,
      "lat": 41.753261,
      "theaterChainName": "AMC Theatres",
      "ticketType": "STANDARD"
    },
    {
      "id": 3622,
      "tribuneTheaterId": 1311,
      "providerTheaterId": "",
      "name": "Crest Theatre",
      "address": "106 E.5th Street",
      "city": "Superior",
      "state": "NE",
      "zip": "68978",
      "distance": 5.23,
      "lon": -87.595534,
      "lat": 41.788014,
      "theaterChainName": "Independent Chains",
      "ticketType": "STANDARD"
    },
    {
      "id": 3647,
      "tribuneTheaterId": 681,
      "providerTheaterId": "",
      "name": "Doc Films",
      "address": "1212 E. 59th St.",
      "city": "Chicago",
      "state": "IL",
      "zip": "60637",
      "distance": 5.23,
      "lon": -87.595534,
      "lat": 41.788014,
      "theaterChainName": "Independent Chains",
      "ticketType": "STANDARD"
    },
    {
      "id": 5296,
      "tribuneTheaterId": 10730,
      "providerTheaterId": "",
      "name": "Harper Theater",
      "address": "5238 S. Harper Ave.",
      "city": "Chicago",
      "state": "IL",
      "zip": "60615",
      "distance": 5.13,
      "lon": -87.5891,
      "lat": 41.7998,
      "theaterChainName": "Independent Chains",
      "ticketType": "STANDARD"
    },
    {
      "id": 2419,
      "tribuneTheaterId": 2536,
      "providerTheaterId": "",
      "name": "Facets Cinematheque",
      "address": "1517 W. Fullerton Ave.",
      "city": "Chicago",
      "state": "IL",
      "zip": "60614",
      "distance": 6.6,
      "lon": -87.666298,
      "lat": 41.924999,
      "theaterChainName": "Independent Chains",
      "ticketType": "STANDARD"
    },
    {
      "id": 2826,
      "tribuneTheaterId": 5936,
      "providerTheaterId": "",
      "name": "Regal City North Stadium 14",
      "address": "2600 N. Western Ave.",
      "city": "Chicago",
      "state": "IL",
      "zip": "60647",
      "distance": 6.93,
      "lon": -87.688045,
      "lat": 41.930173,
      "theaterChainName": "Regal Cinemas",
      "ticketType": "STANDARD"
    },
    {
      "id": 5471,
      "tribuneTheaterId": 10912,
      "providerTheaterId": "",
      "name": "Studio Movie Grill Chatham",
      "address": "210 W 87th St.",
      "city": "Chicago",
      "state": "IL",
      "zip": "60620",
      "distance": 6.78,
      "lon": -87.63055,
      "lat": 41.739002,
      "theaterChainName": "Studio Movie Grill",
      "ticketType": "SELECT_SEATING"
    },
    {
      "id": 1199,
      "tribuneTheaterId": 2877,
      "providerTheaterId": "",
      "name": "Logan Theatre",
      "address": "2646 N. Milwaukee Ave.",
      "city": "Chicago",
      "state": "IL",
      "zip": "60647",
      "distance": 7.06,
      "lon": -87.70892,
      "lat": 41.929831,
      "theaterChainName": "Independent Chains",
      "ticketType": "STANDARD"
    },
    {
      "id": 4361,
      "tribuneTheaterId": 9387,
      "providerTheaterId": "6148",
      "name": "AMC Showplace Galewood 14",
      "address": "5530 W. Homer St.",
      "city": "Chicago",
      "state": "IL",
      "zip": "60639",
      "distance": 7.34,
      "lon": -87.764432,
      "lat": 41.915693,
      "theaterChainName": "AMC Theatres",
      "ticketType": "STANDARD"
    },
    {
      "id": 1201,
      "tribuneTheaterId": 8236,
      "providerTheaterId": "",
      "name": "Music Box",
      "address": "3733 N. Southport Ave.",
      "city": "Chicago",
      "state": "IL",
      "zip": "60613",
      "distance": 8.32,
      "lon": -87.663939,
      "lat": 41.94986,
      "theaterChainName": "Independent Chains",
      "ticketType": "STANDARD"
    },
    {
      "id": 4600,
      "tribuneTheaterId": 9769,
      "providerTheaterId": "",
      "name": "CC North Riverside Mall Theatre",
      "address": "7501 W. Cermak Road",
      "city": "North Riverside",
      "state": "IL",
      "zip": "60546",
      "distance": 6.87,
      "lon": -87.811262,
      "lat": 41.847938,
      "theaterChainName": "Classic Cinemas",
      "ticketType": "STANDARD"
    },
    {
      "id": 792,
      "tribuneTheaterId": 6059,
      "providerTheaterId": "",
      "name": "CC Lake Theatre",
      "address": "1022 Lake St.",
      "city": "Oak Park",
      "state": "IL",
      "zip": "60301",
      "distance": 7.46,
      "lon": -87.801508,
      "lat": 41.888815,
      "theaterChainName": "Classic Cinemas",
      "ticketType": "STANDARD"
    },
    {
      "id": 1192,
      "tribuneTheaterId": 8902,
      "providerTheaterId": "",
      "name": "Davis Theater",
      "address": "4614 N. Lincoln Ave.",
      "city": "Chicago",
      "state": "IL",
      "zip": "60625",
      "distance": 9.36,
      "lon": -87.686639,
      "lat": 41.965313,
      "theaterChainName": "Independent Chains",
      "ticketType": "STANDARD"
    },
    {
      "id": 30,
      "tribuneTheaterId": 8904,
      "providerTheaterId": "2539",
      "name": "AMC Loews Chicago Ridge 6",
      "address": "500 Chicago Ridge Mall",
      "city": "Chicago Ridge",
      "state": "IL",
      "zip": "60415",
      "distance": 9.57,
      "lon": -87.78368,
      "lat": 41.715069,
      "theaterChainName": "AMC Theatres",
      "ticketType": "STANDARD"
    },
    {
      "id": 4781,
      "tribuneTheaterId": 10027,
      "providerTheaterId": "",
      "name": "New 400 Theaters",
      "address": "6746 N. Sheridan Road",
      "city": "Chicago",
      "state": "IL",
      "zip": "60626",
      "distance": 12.12,
      "lon": -87.661138,
      "lat": 42.004844,
      "theaterChainName": "Independent Chains",
      "ticketType": "STANDARD"
    },
    {
      "id": 2301,
      "tribuneTheaterId": 5204,
      "providerTheaterId": "",
      "name": "Cinemark Melrose Park",
      "address": "1001 W. North Ave.",
      "city": "Melrose Park",
      "state": "IL",
      "zip": "60160",
      "distance": 10.17,
      "lon": -87.846143,
      "lat": 41.90976,
      "theaterChainName": "Cinemark",
      "ticketType": "STANDARD"
    },
    {
      "id": 697,
      "tribuneTheaterId": 8545,
      "providerTheaterId": "2571",
      "name": "AMC Loews Quarry Cinemas 14",
      "address": "9201 63rd St.",
      "city": "Hodgkins",
      "state": "IL",
      "zip": "60525",
      "distance": 9.95,
      "lon": -87.859216,
      "lat": 41.776433,
      "theaterChainName": "AMC Theatres",
      "ticketType": "STANDARD"
    },
    {
      "id": 53,
      "tribuneTheaterId": 9198,
      "providerTheaterId": "2520",
      "name": "AMC Loews Crestwood 18",
      "address": "13221 Rivercrest Drive",
      "city": "Crestwood",
      "state": "IL",
      "zip": "60445",
      "distance": 12.76,
      "lon": -87.744262,
      "lat": 41.651596,
      "theaterChainName": "AMC Theatres",
      "ticketType": "STANDARD"
    },
    {
      "id": 1431,
      "tribuneTheaterId": 2882,
      "providerTheaterId": "",
      "name": "La Grange Theatres",
      "address": "80 S. La Grange Road",
      "city": "La Grange",
      "state": "IL",
      "zip": "60525",
      "distance": 9.84,
      "lon": -87.869703,
      "lat": 41.81271,
      "theaterChainName": "Independent Chains",
      "ticketType": "STANDARD"
    },
    {
      "id": 3201,
      "tribuneTheaterId": 5889,
      "providerTheaterId": "6878",
      "name": "AMC Showplace Village Crossing 18",
      "address": "7000 Carpenter Rd.",
      "city": "Skokie",
      "state": "IL",
      "zip": "60077",
      "distance": 13.14,
      "lon": -87.765049,
      "lat": 42.009303,
      "theaterChainName": "AMC Theatres",
      "ticketType": "STANDARD"
    },
    {
      "id": 3079,
      "tribuneTheaterId": 7158,
      "providerTheaterId": "",
      "name": "Evanston Century 12/CineArts 6",
      "address": "1715 Maple Ave.",
      "city": "Evanston",
      "state": "IL",
      "zip": "60201",
      "distance": 15.11,
      "lon": -87.6847,
      "lat": 42.0487,
      "theaterChainName": "Cinemark",
      "ticketType": "STANDARD"
    },
    {
      "id": 1202,
      "tribuneTheaterId": 1658,
      "providerTheaterId": "",
      "name": "Pickwick Theatre",
      "address": "5 S. Prospect Ave.",
      "city": "Park Ridge",
      "state": "IL",
      "zip": "60068",
      "distance": 14.66,
      "lon": -87.829441,
      "lat": 42.010751,
      "theaterChainName": "Independent Chains",
      "ticketType": "STANDARD"
    },
    {
      "id": 2420,
      "tribuneTheaterId": 407,
      "providerTheaterId": "",
      "name": "Hoosier Theatre",
      "address": "1335 119th St.",
      "city": "Whiting",
      "state": "IN",
      "zip": "46394",
      "distance": 14.07,
      "lon": -87.496246,
      "lat": 41.679401,
      "theaterChainName": "Independent Chains",
      "ticketType": "STANDARD"
    },
    {
      "id": 4406,
      "tribuneTheaterId": 9465,
      "providerTheaterId": "",
      "name": "Muvico Rosemont 18",
      "address": "9701 Bryn Mawr Ave.",
      "city": "Rosemont",
      "state": "IL",
      "zip": "60018",
      "distance": 14.15,
      "lon": -87.867608,
      "lat": 41.979735,
      "theaterChainName": "Carmike Cinemas",
      "ticketType": "STANDARD"
    },
    {
      "id": 5962,
      "tribuneTheaterId": 11393,
      "providerTheaterId": "",
      "name": "Marcus Country Club Hills Cinema",
      "address": "4201 W. 167th Street",
      "city": "Country Club Hills",
      "state": "IL",
      "zip": "60478",
      "distance": 16.96,
      "lon": -87.71778,
      "lat": 41.586109,
      "theaterChainName": "Marcus Theaters",
      "ticketType": "STANDARD"
    },
    {
      "id": 1203,
      "tribuneTheaterId": 7178,
      "providerTheaterId": "",
      "name": "Wilmette Theatre",
      "address": "1122 Central Ave.",
      "city": "Wilmette",
      "state": "IL",
      "zip": "60091",
      "distance": 17.09,
      "lon": -87.7062,
      "lat": 42.076599,
      "theaterChainName": "Independent Chains",
      "ticketType": "STANDARD"
    },
    {
      "id": 3212,
      "tribuneTheaterId": 8818,
      "providerTheaterId": "",
      "name": "AMC Loews Country Club Hills 16",
      "address": "4201 W. 167th St.",
      "city": "Country Club Hills",
      "state": "IL",
      "zip": "60478",
      "distance": 17.14,
      "lon": -87.721764,
      "lat": 41.583969,
      "theaterChainName": "AMC Theatres",
      "ticketType": "STANDARD"
    },
    {
      "id": 55,
      "tribuneTheaterId": 2079,
      "providerTheaterId": "",
      "name": "Lansing Cinema 8",
      "address": "16621 Torrence Ave.",
      "city": "Lansing",
      "state": "IL",
      "zip": "60438",
      "distance": 17.56,
      "lon": -87.55559,
      "lat": 41.593399,
      "theaterChainName": "Independent Chains",
      "ticketType": "STANDARD"
    },
    {
      "id": 799,
      "tribuneTheaterId": 6257,
      "providerTheaterId": "",
      "name": "CC York Theatre",
      "address": "150 N. York Road",
      "city": "Elmhurst",
      "state": "IL",
      "zip": "60126",
      "distance": 14.27,
      "lon": -87.9399,
      "lat": 41.9016,
      "theaterChainName": "Classic Cinemas",
      "ticketType": "STANDARD"
    },
    {
      "id": 4242,
      "tribuneTheaterId": 4954,
      "providerTheaterId": "6693",
      "name": "AMC Showplace Niles 12",
      "address": "301 Golf Mill Center",
      "city": "Niles",
      "state": "IL",
      "zip": "60714",
      "distance": 17.28,
      "lon": -87.837292,
      "lat": 42.051028,
      "theaterChainName": "AMC Theatres",
      "ticketType": "STANDARD"
    },
    {
      "id": 5981,
      "tribuneTheaterId": 11417,
      "providerTheaterId": "",
      "name": "AMC Oakbrook Center 12",
      "address": "600 Oakbrook Center",
      "city": "Oak Brook",
      "state": "IL",
      "zip": "60523",
      "distance": 14.06,
      "lon": -87.952177,
      "lat": 41.84764,
      "theaterChainName": "AMC Theatres",
      "ticketType": "STANDARD"
    },
    {
      "id": 5706,
      "tribuneTheaterId": 11145,
      "providerTheaterId": "473",
      "name": "Oakbrook Center 4",
      "address": "300 Oakbrook Center",
      "city": "Oak Brook",
      "state": "IL",
      "zip": "60523",
      "distance": 14.23,
      "lon": -87.9555,
      "lat": 41.8477,
      "theaterChainName": "AMC Theatres",
      "ticketType": "STANDARD"
    },
    {
      "id": 1404,
      "tribuneTheaterId": 2705,
      "providerTheaterId": "",
      "name": "Bensenville 2 Theater",
      "address": "9 S. Center St.",
      "city": "Bensenville",
      "state": "IL",
      "zip": "60106",
      "distance": 16,
      "lon": -87.940886,
      "lat": 41.956241,
      "theaterChainName": "Independent Chains",
      "ticketType": "STANDARD"
    },
    {
      "id": 2514,
      "tribuneTheaterId": 5792,
      "providerTheaterId": "",
      "name": "Marcus Orland Park Cinemas",
      "address": "16350 S. La Grange Road",
      "city": "Orland Park",
      "state": "IL",
      "zip": "60467",
      "distance": 18.74,
      "lon": -87.853709,
      "lat": 41.591851,
      "theaterChainName": "Marcus Theaters",
      "ticketType": "STANDARD"
    },
    {
      "id": 212,
      "tribuneTheaterId": 8250,
      "providerTheaterId": "825",
      "name": "AMC Yorktown",
      "address": "80 Yorktown Center",
      "city": "Lombard",
      "state": "IL",
      "zip": "60148",
      "distance": 16.58,
      "lon": -88.001829,
      "lat": 41.840135,
      "theaterChainName": "AMC Theatres",
      "ticketType": "STANDARD"
    }
  ]
}