{
  "theaters": [
    {
      "id": 657,
      "tribuneTheaterId": 8461,
      "providerTheaterId": "262",
      "name": "AMC First Colony 24",
      "address": "3301 Town Centre Blvd. S.",
      "city": "Sugar Land",
      "state": "TX",
      "zip": "77479",
      "distance": 1.89,
      "lon": -95.627382,
      "lat": 29.587154,
      "theaterChainName": "AMC Theatres",
      "ticketType": "STANDARD"
    },
    {
      "id": 345,
      "tribuneTheaterId": 8544,
      "providerTheaterId": "2430",
      "name": "AMC Loews Fountains 18",
      "address": "11225 Fountain Lake Drive",
      "city": "Stafford",
      "state": "TX",
      "zip": "77477",
      "distance": 2.65,
      "lon": -95.584338,
      "lat": 29.641193,
      "theaterChainName": "AMC Theatres",
      "ticketType": "STANDARD"
    },
    {
      "id": 5142,
      "tribuneTheaterId": 10548,
      "providerTheaterId": "",
      "name": "Star Cinema Grill Missouri City",
      "address": "4811 Highway 6",
      "city": "Missouri City",
      "state": "TX",
      "zip": "77459",
      "distance": 2.67,
      "lon": -95.5814,
      "lat": 29.5796,
      "theaterChainName": "Independent Chains",
      "ticketType": "STANDARD"
    },
    {
      "id": 5202,
      "tribuneTheaterId": 10626,
      "providerTheaterId": "",
      "name": "Edwards West Oaks Stadium 14 & RPX",
      "address": "700 W Oaks Mall",
      "city": "Houston",
      "state": "TX",
      "zip": "77082",
      "distance": 8.81,
      "lon": -95.6478,
      "lat": 29.7298,
      "theaterChainName": "Edwards Theatres",
      "ticketType": "STANDARD"
    },
    {
      "id": 5346,
      "tribuneTheaterId": 10784,
      "providerTheaterId": "",
      "name": "Santikos Palladium AVX Entertainment",
      "address": "7301 Grand Parkway",
      "city": "Richmond",
      "state": "TX",
      "zip": "77407",
      "distance": 9.4,
      "lon": -95.7495,
      "lat": 29.6718,
      "theaterChainName": "Santikos Theatres",
      "ticketType": "STANDARD"
    },
    {
      "id": 342,
      "tribuneTheaterId": 7808,
      "providerTheaterId": "255",
      "name": "AMC Studio 30 Houston",
      "address": "2949 Dunvale",
      "city": "Houston",
      "state": "TX",
      "zip": "77063",
      "distance": 10.28,
      "lon": -95.511929,
      "lat": 29.731887,
      "theaterChainName": "AMC Theatres",
      "ticketType": "STANDARD"
    },
    {
      "id": 4196,
      "tribuneTheaterId": 4227,
      "providerTheaterId": "",
      "name": "Cinemark 12 Rosenberg",
      "address": "3420 Vista Drive",
      "city": "Rosenberg",
      "state": "TX",
      "zip": "77471",
      "distance": 10.11,
      "lon": -95.761669,
      "lat": 29.546601,
      "theaterChainName": "Cinemark",
      "ticketType": "STANDARD"
    },
    {
      "id": 4711,
      "tribuneTheaterId": 9925,
      "providerTheaterId": "",
      "name": "Studio Movie Grill City Centre",
      "address": "805 Town ",
      "city": "Houston",
      "state": "TX",
      "zip": "77024",
      "distance": 12.2,
      "lon": -95.561066,
      "lat": 29.781305,
      "theaterChainName": "Studio Movie Grill",
      "ticketType": "SELECT_SEATING"
    },
    {
      "id": 4328,
      "tribuneTheaterId": 9302,
      "providerTheaterId": "",
      "name": "Cinemark Memorial City",
      "address": "310 Memorial City Mall",
      "city": "Houston",
      "state": "TX",
      "zip": "77024",
      "distance": 12.46,
      "lon": -95.541015,
      "lat": 29.780098,
      "theaterChainName": "Cinemark",
      "ticketType": "STANDARD"
    },
    {
      "id": 2761,
      "tribuneTheaterId": 4860,
      "providerTheaterId": "",
      "name": "Edwards Greenway Palace Stadium 24 & RPX",
      "address": "3839 Weslayan",
      "city": "Houston",
      "state": "TX",
      "zip": "77027",
      "distance": 13.16,
      "lon": -95.440731,
      "lat": 29.731016,
      "theaterChainName": "Edwards Theatres",
      "ticketType": "STANDARD"
    },
    {
      "id": 4248,
      "tribuneTheaterId": 2076,
      "providerTheaterId": "",
      "name": "Alamo-Mason Park",
      "address": "531 South Mason Rd.",
      "city": "Katy",
      "state": "TX",
      "zip": "77450",
      "distance": 14.22,
      "lon": -95.749283,
      "lat": 29.776467,
      "theaterChainName": "Alamo Drafthouse",
      "ticketType": "STANDARD"
    },
    {
      "id": 2895,
      "tribuneTheaterId": 4859,
      "providerTheaterId": "",
      "name": "Edwards Houston Marq*E Stadium 23",
      "address": "7620 Katy Freeway",
      "city": "Houston",
      "state": "TX",
      "zip": "77024",
      "distance": 15,
      "lon": -95.463488,
      "lat": 29.78591,
      "theaterChainName": "Edwards Theatres",
      "ticketType": "STANDARD"
    },
    {
      "id": 4028,
      "tribuneTheaterId": 4225,
      "providerTheaterId": "",
      "name": "Cinemark at Pearland and XD",
      "address": "Hwy. 288 and Hwy. 518",
      "city": "Pearland",
      "state": "TX",
      "zip": "77581",
      "distance": 14.15,
      "lon": -95.385232,
      "lat": 29.549137,
      "theaterChainName": "Cinemark",
      "ticketType": "STANDARD"
    },
    {
      "id": 2454,
      "tribuneTheaterId": 4168,
      "providerTheaterId": "",
      "name": "Cinemark 19 and XD Katy",
      "address": "1030 W. Grand Pkwy North",
      "city": "Katy",
      "state": "TX",
      "zip": "77449",
      "distance": 15.71,
      "lon": -95.774592,
      "lat": 29.786748,
      "theaterChainName": "Cinemark",
      "ticketType": "STANDARD"
    },
    {
      "id": 4144,
      "tribuneTheaterId": 2369,
      "providerTheaterId": "",
      "name": "Carmike Yorktown 15",
      "address": "15900 Yorktown Crossing",
      "city": "Houston",
      "state": "TX",
      "zip": "77084",
      "distance": 17.61,
      "lon": -95.6487,
      "lat": 29.8626,
      "theaterChainName": "Carmike Cinemas",
      "ticketType": "STANDARD"
    },
    {
      "id": 2673,
      "tribuneTheaterId": 9154,
      "providerTheaterId": "148",
      "name": "AMC Katy Mills 20",
      "address": "5000 Katy Mills Circle",
      "city": "Katy",
      "state": "TX",
      "zip": "77494",
      "distance": 16.42,
      "lon": -95.809504,
      "lat": 29.772652,
      "theaterChainName": "AMC Theatres",
      "ticketType": "STANDARD"
    },
    {
      "id": 291,
      "tribuneTheaterId": 8355,
      "providerTheaterId": "",
      "name": "Cinemark Tinseltown 290",
      "address": "12920 NW Freeway",
      "city": "Houston",
      "state": "TX",
      "zip": "77040",
      "distance": 17.71,
      "lon": -95.496534,
      "lat": 29.846625,
      "theaterChainName": "Cinemark",
      "ticketType": "STANDARD"
    },
    {
      "id": 4210,
      "tribuneTheaterId": 3994,
      "providerTheaterId": "",
      "name": "Studio Movie Grill - Copperfield",
      "address": "8580 Highway 6 North",
      "city": "Houston",
      "state": "TX",
      "zip": "77095",
      "distance": 20.17,
      "lon": -95.630665,
      "lat": 29.90131,
      "theaterChainName": "Studio Movie Grill",
      "ticketType": "SELECT_SEATING"
    },
    {
      "id": 1166,
      "tribuneTheaterId": 5072,
      "providerTheaterId": "",
      "name": "Pearland Premiere Cinema 6",
      "address": "5050 W. Broadway",
      "city": "Pearland",
      "state": "TX",
      "zip": "77581",
      "distance": 19.02,
      "lon": -95.299069,
      "lat": 29.558733,
      "theaterChainName": "Premiere Cinemas",
      "ticketType": "STANDARD"
    },
    {
      "id": 5897,
      "tribuneTheaterId": 11319,
      "providerTheaterId": "",
      "name": "Studio Movie Grill Pearland",
      "address": "8440 South Sam Houston Easy Parkway",
      "city": "Houston",
      "state": "TX",
      "zip": "77075",
      "distance": 20.55,
      "lon": -95.2682,
      "lat": 29.5998,
      "theaterChainName": "Studio Movie Grill",
      "ticketType": "SELECT_SEATING"
    },
    {
      "id": 2823,
      "tribuneTheaterId": 7975,
      "providerTheaterId": "162",
      "name": "AMC Willowbrook 24",
      "address": "17145 Tomball Parkway",
      "city": "Houston",
      "state": "TX",
      "zip": "77064",
      "distance": 24.07,
      "lon": -95.541181,
      "lat": 29.95318,
      "theaterChainName": "AMC Theatres",
      "ticketType": "STANDARD"
    },
    {
      "id": 4418,
      "tribuneTheaterId": 9485,
      "providerTheaterId": "",
      "name": "Willowbrook Movie Tavern",
      "address": "18359 Tomball Parkway",
      "city": "Houston",
      "state": "TX",
      "zip": "77070",
      "distance": 24.72,
      "lon": -95.55532,
      "lat": 29.964659,
      "theaterChainName": "Movie Tavern",
      "ticketType": "STANDARD"
    },
    {
      "id": 4132,
      "tribuneTheaterId": 8819,
      "providerTheaterId": "",
      "name": "Cinemark 12 Cypress",
      "address": "25720 Northwest Fwy.",
      "city": "Cypress",
      "state": "TX",
      "zip": "77429",
      "distance": 25.32,
      "lon": -95.688674,
      "lat": 29.969962,
      "theaterChainName": "Cinemark",
      "ticketType": "STANDARD"
    },
    {
      "id": 5270,
      "tribuneTheaterId": 10704,
      "providerTheaterId": "",
      "name": "Star Cinema Vintage Park",
      "address": "114 Vintage Park Blvd.",
      "city": "Houston",
      "state": "TX",
      "zip": "77070",
      "distance": 26.67,
      "lon": -95.5743,
      "lat": 29.9947,
      "theaterChainName": "Alamo Drafthouse",
      "ticketType": "STANDARD"
    },
    {
      "id": 5050,
      "tribuneTheaterId": 10429,
      "providerTheaterId": "",
      "name": "Premiere Renaissance",
      "address": "12300 N Freeway #400",
      "city": "Houston",
      "state": "TX",
      "zip": "77060",
      "distance": 26.09,
      "lon": -95.415,
      "lat": 29.9456,
      "theaterChainName": "Premiere Cinemas",
      "ticketType": "STANDARD"
    },
    {
      "id": 656,
      "tribuneTheaterId": 8112,
      "providerTheaterId": "268",
      "name": "AMC Gulf Pointe 30",
      "address": "11801 S. Sam Houston Parkway",
      "city": "Houston",
      "state": "TX",
      "zip": "77089",
      "distance": 23.86,
      "lon": -95.212809,
      "lat": 29.60489,
      "theaterChainName": "AMC Theatres",
      "ticketType": "STANDARD"
    },
    {
      "id": 842,
      "tribuneTheaterId": 9174,
      "providerTheaterId": "",
      "name": "Cinemark Tinseltown Jacinto City",
      "address": "11450 East Freeway",
      "city": "Jacinto City",
      "state": "TX",
      "zip": "77029",
      "distance": 25.34,
      "lon": -95.229245,
      "lat": 29.768421,
      "theaterChainName": "Cinemark",
      "ticketType": "STANDARD"
    },
    {
      "id": 4183,
      "tribuneTheaterId": 2074,
      "providerTheaterId": "",
      "name": "Richey Road Movie Tavern",
      "address": "15719 I-45 N.",
      "city": "Houston",
      "state": "TX",
      "zip": "77090",
      "distance": 28.82,
      "lon": -95.426387,
      "lat": 29.995453,
      "theaterChainName": "Movie Tavern",
      "ticketType": "STANDARD"
    },
    {
      "id": 4465,
      "tribuneTheaterId": 9556,
      "providerTheaterId": "",
      "name": "Santikos Silverado 19 IMAX",
      "address": "24720 Tomball Parkway",
      "city": "Tomball",
      "state": "TX",
      "zip": "77375",
      "distance": 29.81,
      "lon": -95.60513,
      "lat": 30.041423,
      "theaterChainName": "Santikos Theatres",
      "ticketType": "STANDARD"
    },
    {
      "id": 4098,
      "tribuneTheaterId": 2013,
      "providerTheaterId": "",
      "name": "Cinema Latino de Pasadena",
      "address": "2233 Southmore Ave.",
      "city": "Pasadena",
      "state": "TX",
      "zip": "77502",
      "distance": 26.41,
      "lon": -95.180507,
      "lat": 29.692552,
      "theaterChainName": "Independent Chains",
      "ticketType": "STANDARD"
    },
    {
      "id": 235,
      "tribuneTheaterId": 8619,
      "providerTheaterId": "",
      "name": "Cinemark Hollywood Movies 20",
      "address": "2101 East Beltway 8",
      "city": "Pasadena",
      "state": "TX",
      "zip": "77503",
      "distance": 27.84,
      "lon": -95.153596,
      "lat": 29.680486,
      "theaterChainName": "Cinemark",
      "ticketType": "STANDARD"
    },
    {
      "id": 5869,
      "tribuneTheaterId": 11285,
      "providerTheaterId": "",
      "name": "Star Cinema Grill Baybrook",
      "address": "702 Baybrook Mall",
      "city": "Friendswood",
      "state": "TX",
      "zip": "77546",
      "distance": 27.98,
      "lon": -95.150239,
      "lat": 29.54583,
      "theaterChainName": "Independent Chains",
      "ticketType": "STANDARD"
    },
    {
      "id": 5360,
      "tribuneTheaterId": 10799,
      "providerTheaterId": "",
      "name": "Cinemark Spring-Klein",
      "address": "21440 Kuykendahl Road",
      "city": "Spring",
      "state": "TX",
      "zip": "77379",
      "distance": 32.78,
      "lon": -95.517,
      "lat": 30.0775,
      "theaterChainName": "Cinemark",
      "ticketType": "STANDARD"
    },
    {
      "id": 3413,
      "tribuneTheaterId": 5075,
      "providerTheaterId": "",
      "name": "Premiere Tomball Cinema 6",
      "address": "28497 Tomball Parkway",
      "city": "Tomball",
      "state": "TX",
      "zip": "77375",
      "distance": 33.06,
      "lon": -95.632,
      "lat": 30.0876,
      "theaterChainName": "Premiere Cinemas",
      "ticketType": "STANDARD"
    },
    {
      "id": 126,
      "tribuneTheaterId": 8948,
      "providerTheaterId": "2426",
      "name": "AMC Loews Spring 10",
      "address": "20115 Holzwarth Road",
      "city": "Spring",
      "state": "TX",
      "zip": "77388",
      "distance": 32.58,
      "lon": -95.438039,
      "lat": 30.057322,
      "theaterChainName": "AMC Theatres",
      "ticketType": "STANDARD"
    },
    {
      "id": 6144,
      "tribuneTheaterId": 11566,
      "providerTheaterId": "",
      "name": "District Theatres",
      "address": "1020 W NASA Parkway",
      "city": "Webster",
      "state": "TX",
      "zip": "77598",
      "distance": 29.33,
      "lon": -95.130357,
      "lat": 29.531416,
      "theaterChainName": "Star Cinema Grill",
      "ticketType": "STANDARD"
    },
    {
      "id": 1283,
      "tribuneTheaterId": 3080,
      "providerTheaterId": "",
      "name": "Filmworks Baxter Avenue 8 Theatres",
      "address": "1250 Bardstown Road",
      "city": "Louisville",
      "state": "KY",
      "zip": "40204",
      "distance": 29.33,
      "lon": -95.130357,
      "lat": 29.531416,
      "theaterChainName": "Independent Chains",
      "ticketType": "STANDARD"
    },
    {
      "id": 1155,
      "tribuneTheaterId": 5076,
      "providerTheaterId": "",
      "name": "Premiere Nasa Dollar 8",
      "address": "20833 Gulf Freeway",
      "city": "Webster",
      "state": "TX",
      "zip": "77598",
      "distance": 29.58,
      "lon": -95.12733,
      "lat": 29.526455,
      "theaterChainName": "Premiere Cinemas",
      "ticketType": "STANDARD"
    },
    {
      "id": 5937,
      "tribuneTheaterId": 11368,
      "providerTheaterId": "",
      "name": "ShowBiz Fall Creek 10",
      "address": "4811 Canyon Lakes Trace Drive",
      "city": "Humble",
      "state": "TX",
      "zip": "77396",
      "distance": 31.55,
      "lon": -95.242369,
      "lat": 29.93657,
      "theaterChainName": "ShowBiz Cinemas",
      "ticketType": "STANDARD"
    },
    {
      "id": 3071,
      "tribuneTheaterId": 8548,
      "providerTheaterId": "",
      "name": "Cinemark 18 Webster",
      "address": "20915 Gulf Freeway",
      "city": "Webster",
      "state": "TX",
      "zip": "77598",
      "distance": 29.72,
      "lon": -95.124757,
      "lat": 29.526697,
      "theaterChainName": "Cinemark",
      "ticketType": "STANDARD"
    }
  ]
}