{
  "theaters": [
    {
      "id": 4972,
      "tribuneTheaterId": 10332,
      "providerTheaterId": "",
      "name": "The Grand Fort Bliss 10",
      "address": "1619 Pleasonton Road",
      "city": "Fort Bliss",
      "state": "TX",
      "zip": "79906",
      "distance": 1.58,
      "lon": -106.426857,
      "lat": 31.81728,
      "theaterChainName": "Southern Theatres",
      "ticketType": "STANDARD"
    },
    {
      "id": 2632,
      "tribuneTheaterId": 4793,
      "providerTheaterId": "",
      "name": "Carmike 16 El Paso",
      "address": "9480 Gateway Blvd North",
      "city": "El Paso",
      "state": "TX",
      "zip": "79924",
      "distance": 3.79,
      "lon": -106.437832,
      "lat": 31.894376,
      "theaterChainName": "Carmike Cinemas",
      "ticketType": "STANDARD"
    },
    {
      "id": 4348,
      "tribuneTheaterId": 9364,
      "providerTheaterId": "",
      "name": "Premiere Cinema 18 at Bassett Place Mall",
      "address": "6101 Gateway West",
      "city": "El Paso",
      "state": "TX",
      "zip": "79925",
      "distance": 4.01,
      "lon": -106.412973,
      "lat": 31.783726,
      "theaterChainName": "Premiere Cinemas",
      "ticketType": "STANDARD"
    },
    {
      "id": 4169,
      "tribuneTheaterId": 7326,
      "providerTheaterId": "",
      "name": "Cinemark Cielo Vista",
      "address": "8401 Gateway West Blvd",
      "city": "El Paso",
      "state": "TX",
      "zip": "79925",
      "distance": 5.09,
      "lon": -106.382761,
      "lat": 31.778289,
      "theaterChainName": "Cinemark",
      "ticketType": "STANDARD"
    },
    {
      "id": 5884,
      "tribuneTheaterId": 11304,
      "providerTheaterId": "",
      "name": "Alamo Drafthouse El Paso",
      "address": "250 East Motecillo Blvd",
      "city": "El Paso",
      "state": "TX",
      "zip": "79912",
      "distance": 5.1,
      "lon": -106.510772,
      "lat": 31.812811,
      "theaterChainName": "Alamo Drafthouse",
      "ticketType": "STANDARD"
    },
    {
      "id": 2274,
      "tribuneTheaterId": 2038,
      "providerTheaterId": "",
      "name": "Montwood Movies 7",
      "address": "2200 N. Yarbrough",
      "city": "El Paso",
      "state": "TX",
      "zip": "79925",
      "distance": 7.08,
      "lon": -106.338244,
      "lat": 31.773572,
      "theaterChainName": "Premiere Cinemas",
      "ticketType": "STANDARD"
    },
    {
      "id": 5402,
      "tribuneTheaterId": 10840,
      "providerTheaterId": "",
      "name": "Cinemark Movie Bistro - El Paso",
      "address": "750 Sunland Park Drive, Suite # T01 at Sunland Par",
      "city": "El Paso",
      "state": "TX",
      "zip": "79912",
      "distance": 6.91,
      "lon": -106.543917,
      "lat": 31.81488,
      "theaterChainName": "Cinemark",
      "ticketType": "STANDARD"
    },
    {
      "id": 3620,
      "tribuneTheaterId": 9014,
      "providerTheaterId": "",
      "name": "Cinemark West 12",
      "address": "7440 Remcon Circle",
      "city": "El Paso",
      "state": "TX",
      "zip": "79912",
      "distance": 7.84,
      "lon": -106.5634,
      "lat": 31.8346,
      "theaterChainName": "Cinemark",
      "ticketType": "STANDARD"
    },
    {
      "id": 1370,
      "tribuneTheaterId": 5259,
      "providerTheaterId": "",
      "name": "Cinemark Tinseltown USA & XD El Paso",
      "address": "11855 Gateway Blvd. West",
      "city": "El Paso",
      "state": "TX",
      "zip": "79936",
      "distance": 10.58,
      "lon": -106.307528,
      "lat": 31.727741,
      "theaterChainName": "Cinemark",
      "ticketType": "STANDARD"
    },
    {
      "id": 5403,
      "tribuneTheaterId": 10841,
      "providerTheaterId": "",
      "name": "Cinemark East Montana",
      "address": "12704 East Montana",
      "city": "El Paso",
      "state": "TX",
      "zip": "79938",
      "distance": 11.07,
      "lon": -106.2449,
      "lat": 31.8093,
      "theaterChainName": "Cinemark",
      "ticketType": "STANDARD"
    }
  ]
}