{
  "theaters": [
    {
      "id": 1599,
      "tribuneTheaterId": 7608,
      "providerTheaterId": "",
      "name": "Pacific Northridge Fashion Center 10",
      "address": "9400 N. Shirley Ave.",
      "city": "Northridge",
      "state": "CA",
      "zip": "91324",
      "distance": 2.95,
      "lon": -118.557562,
      "lat": 34.240196,
      "theaterChainName": "Pacific Theaters",
      "ticketType": "STANDARD"
    },
    {
      "id": 304,
      "tribuneTheaterId": 7926,
      "providerTheaterId": "",
      "name": "Laemmle Town Center 5",
      "address": "17200 Ventura Blvd.",
      "city": "Encino",
      "state": "CA",
      "zip": "91316",
      "distance": 3.32,
      "lon": -118.507912,
      "lat": 34.160017,
      "theaterChainName": "Laemmle Theatres",
      "ticketType": "STANDARD"
    },
    {
      "id": 691,
      "tribuneTheaterId": 9007,
      "providerTheaterId": "",
      "name": "Pacific Winnetka 21",
      "address": "9201 Winnetka Ave.",
      "city": "Chatsworth",
      "state": "CA",
      "zip": "91311",
      "distance": 3.29,
      "lon": -118.574152,
      "lat": 34.238273,
      "theaterChainName": "Pacific Theaters",
      "ticketType": "STANDARD"
    },
    {
      "id": 197,
      "tribuneTheaterId": 9176,
      "providerTheaterId": "202",
      "name": "AMC Promenade 16",
      "address": "21801 Oxnard St.",
      "city": "Woodland Hills",
      "state": "CA",
      "zip": "91367",
      "distance": 3.86,
      "lon": -118.603283,
      "lat": 34.180302,
      "theaterChainName": "AMC Theatres",
      "ticketType": "STANDARD"
    },
    {
      "id": 4854,
      "tribuneTheaterId": 10148,
      "providerTheaterId": "",
      "name": "Regency Granada Hills",
      "address": "16830 Devonshire St.",
      "city": "Granada Hills",
      "state": "CA",
      "zip": "91344",
      "distance": 4.57,
      "lon": -118.499082,
      "lat": 34.256773,
      "theaterChainName": "Regency Theatres",
      "ticketType": "STANDARD"
    },
    {
      "id": 5309,
      "tribuneTheaterId": 10746,
      "providerTheaterId": "445",
      "name": "AMC Fallbrook 7",
      "address": "6731 Fallbrook Ave.",
      "city": "West Hills",
      "state": "CA",
      "zip": "91307",
      "distance": 4.91,
      "lon": -118.625488,
      "lat": 34.192268,
      "theaterChainName": "AMC Theatres",
      "ticketType": "STANDARD"
    },
    {
      "id": 5054,
      "tribuneTheaterId": 10434,
      "providerTheaterId": "",
      "name": "Regency Van Nuys Plant 16",
      "address": "7876 Van Nuys Blvd.",
      "city": "Van Nuys",
      "state": "CA",
      "zip": "91402",
      "distance": 5.52,
      "lon": -118.4487,
      "lat": 34.2142,
      "theaterChainName": "Regency Theatres",
      "ticketType": "STANDARD"
    },
    {
      "id": 3644,
      "tribuneTheaterId": 7764,
      "providerTheaterId": "",
      "name": "Pacific Sherman Oaks 5",
      "address": "14424 Milbank St.",
      "city": "Sherman Oaks",
      "state": "CA",
      "zip": "91423",
      "distance": 6.2,
      "lon": -118.447642,
      "lat": 34.152845,
      "theaterChainName": "Pacific Theaters",
      "ticketType": "STANDARD"
    },
    {
      "id": 2008,
      "tribuneTheaterId": 5807,
      "providerTheaterId": "",
      "name": "Edwards Calabasas Stadium 6",
      "address": "4767 Commons Way",
      "city": "Calabasas",
      "state": "CA",
      "zip": "91302",
      "distance": 6.86,
      "lon": -118.645829,
      "lat": 34.153273,
      "theaterChainName": "Edwards Theatres",
      "ticketType": "STANDARD"
    },
    {
      "id": 246,
      "tribuneTheaterId": 8667,
      "providerTheaterId": "",
      "name": "Century 8",
      "address": "12827 Victory Blvd.",
      "city": "North Hollywood",
      "state": "CA",
      "zip": "91606",
      "distance": 7.33,
      "lon": -118.412752,
      "lat": 34.187053,
      "theaterChainName": "Cinemark",
      "ticketType": "STANDARD"
    },
    {
      "id": 3,
      "tribuneTheaterId": 6802,
      "providerTheaterId": "",
      "name": "Village - Westwood Village",
      "address": "961 Broxton Ave.",
      "city": "Los Angeles",
      "state": "CA",
      "zip": "90024",
      "distance": 10.88,
      "lon": -118.447179,
      "lat": 34.062566,
      "theaterChainName": "Regency Theatres",
      "ticketType": "STANDARD"
    },
    {
      "id": 4,
      "tribuneTheaterId": 6803,
      "providerTheaterId": "",
      "name": "Bruin - Westwood Village",
      "address": "948 Broxton Ave.",
      "city": "Los Angeles",
      "state": "CA",
      "zip": "90024",
      "distance": 10.88,
      "lon": -118.446921,
      "lat": 34.062719,
      "theaterChainName": "Regency Theatres",
      "ticketType": "STANDARD"
    },
    {
      "id": 5141,
      "tribuneTheaterId": 10547,
      "providerTheaterId": "",
      "name": "Laemmle Noho 7",
      "address": "5240 Lankershim Blvd.",
      "city": "North Hollywood",
      "state": "CA",
      "zip": "91601",
      "distance": 9.71,
      "lon": -118.375053,
      "lat": 34.166249,
      "theaterChainName": "Laemmle Theatres",
      "ticketType": "STANDARD"
    },
    {
      "id": 299,
      "tribuneTheaterId": 2417,
      "providerTheaterId": "",
      "name": "American Cinematheque at the Aero Theatre",
      "address": "1328 Montana Ave.",
      "city": "Santa Monica",
      "state": "CA",
      "zip": "90403",
      "distance": 11.91,
      "lon": -118.495598,
      "lat": 34.031668,
      "theaterChainName": "American Cinematheque",
      "ticketType": "STANDARD"
    },
    {
      "id": 298,
      "tribuneTheaterId": 8525,
      "providerTheaterId": "",
      "name": "Laemmle's Royal Theatre",
      "address": "11523 Santa Monica Blvd.",
      "city": "Los Angeles",
      "state": "CA",
      "zip": "90025",
      "distance": 11.8,
      "lon": -118.4525,
      "lat": 34.0453,
      "theaterChainName": "Laemmle Theatres",
      "ticketType": "STANDARD"
    },
    {
      "id": 18,
      "tribuneTheaterId": 8458,
      "providerTheaterId": "245",
      "name": "AMC Century City 15",
      "address": "10250 Santa Monica Blvd., 2000",
      "city": "Los Angeles",
      "state": "CA",
      "zip": "90067",
      "distance": 11.86,
      "lon": -118.420038,
      "lat": 34.059992,
      "theaterChainName": "AMC Theatres",
      "ticketType": "STANDARD"
    },
    {
      "id": 19,
      "tribuneTheaterId": 9153,
      "providerTheaterId": "203",
      "name": "AMC Santa Monica 7",
      "address": "1310 3rd St.",
      "city": "Santa Monica",
      "state": "CA",
      "zip": "90401",
      "distance": 12.91,
      "lon": -118.497419,
      "lat": 34.016542,
      "theaterChainName": "AMC Theatres",
      "ticketType": "STANDARD"
    },
    {
      "id": 301,
      "tribuneTheaterId": 7293,
      "providerTheaterId": "",
      "name": "Laemmle Monica 4-plex",
      "address": "1332 Second St.",
      "city": "Santa Monica",
      "state": "CA",
      "zip": "90401",
      "distance": 12.96,
      "lon": -118.498,
      "lat": 34.0157,
      "theaterChainName": "Laemmle Theatres",
      "ticketType": "STANDARD"
    },
    {
      "id": 49,
      "tribuneTheaterId": 8241,
      "providerTheaterId": "2417",
      "name": "AMC Loews Broadway 4",
      "address": "1441 Third Street Promenade",
      "city": "Santa Monica",
      "state": "CA",
      "zip": "90401",
      "distance": 13.05,
      "lon": -118.494903,
      "lat": 34.014806,
      "theaterChainName": "AMC Theatres",
      "ticketType": "STANDARD"
    },
    {
      "id": 2661,
      "tribuneTheaterId": 8660,
      "providerTheaterId": "",
      "name": "Regal Simi Valley Civic Center Stadium 16 & IMAX",
      "address": "2751 Tapo Canyon Road",
      "city": "Simi Valley",
      "state": "CA",
      "zip": "93063",
      "distance": 11.78,
      "lon": -118.719066,
      "lat": 34.284591,
      "theaterChainName": "Regal Cinemas",
      "ticketType": "STANDARD"
    },
    {
      "id": 296,
      "tribuneTheaterId": 7925,
      "providerTheaterId": "",
      "name": "Laemmle Music Hall 3",
      "address": "9036 Wilshire Blvd.",
      "city": "Beverly Hills",
      "state": "CA",
      "zip": "90211",
      "distance": 12.62,
      "lon": -118.388951,
      "lat": 34.066881,
      "theaterChainName": "Laemmle Theatres",
      "ticketType": "STANDARD"
    },
    {
      "id": 297,
      "tribuneTheaterId": 7605,
      "providerTheaterId": "",
      "name": "AMC Dine-in Sunset 5",
      "address": "8000 W. Sunset Blvd.",
      "city": "Los Angeles",
      "state": "CA",
      "zip": "90046",
      "distance": 12.27,
      "lon": -118.364909,
      "lat": 34.097263,
      "theaterChainName": "Sundance Cinemas",
      "ticketType": "STANDARD"
    },
    {
      "id": 5782,
      "tribuneTheaterId": 11222,
      "providerTheaterId": "",
      "name": "Ahrya Fine Arts",
      "address": "8556 Wilshire Blvd",
      "city": "Beverly Hills",
      "state": "CA",
      "zip": "90211",
      "distance": 13.13,
      "lon": -118.377928,
      "lat": 34.065338,
      "theaterChainName": "Laemmle Theatres",
      "ticketType": "STANDARD"
    },
    {
      "id": 302,
      "tribuneTheaterId": 6244,
      "providerTheaterId": "",
      "name": "Hollywood Theatres Malibu Cinemas",
      "address": "3822 Crosscreek Road",
      "city": "Malibu",
      "state": "CA",
      "zip": "90265",
      "distance": 14.04,
      "lon": -118.685148,
      "lat": 34.036064,
      "theaterChainName": "Regal Cinemas",
      "ticketType": "STANDARD"
    },
    {
      "id": 104,
      "tribuneTheaterId": 8892,
      "providerTheaterId": "",
      "name": "Edwards Valencia Stadium 12",
      "address": "24435 Town Center Drive",
      "city": "Santa Clarita",
      "state": "CA",
      "zip": "91355",
      "distance": 15.16,
      "lon": -118.561707,
      "lat": 34.418613,
      "theaterChainName": "Edwards Theatres",
      "ticketType": "STANDARD"
    },
    {
      "id": 3477,
      "tribuneTheaterId": 4865,
      "providerTheaterId": "",
      "name": "Pacific The Grove Stadium 14",
      "address": "189 The Grove Drive",
      "city": "Los Angeles",
      "state": "CA",
      "zip": "90036",
      "distance": 13.67,
      "lon": -118.358296,
      "lat": 34.071507,
      "theaterChainName": "Pacific Theaters",
      "ticketType": "STANDARD"
    },
    {
      "id": 7,
      "tribuneTheaterId": 6710,
      "providerTheaterId": "",
      "name": "TCL Chinese Theatre",
      "address": "6801 Hollywood Blvd.",
      "city": "Hollywood",
      "state": "CA",
      "zip": "90028",
      "distance": 13.3,
      "lon": -118.3401,
      "lat": 34.1015,
      "theaterChainName": "Independent Chains",
      "ticketType": "STANDARD"
    },
    {
      "id": 292,
      "tribuneTheaterId": 8974,
      "providerTheaterId": "",
      "name": "Pacific El Capitan",
      "address": "6838 Hollywood Blvd.",
      "city": "Hollywood",
      "state": "CA",
      "zip": "90028",
      "distance": 13.33,
      "lon": -118.33978,
      "lat": 34.101195,
      "theaterChainName": "Independent Chains",
      "ticketType": "STANDARD"
    },
    {
      "id": 12,
      "tribuneTheaterId": 7407,
      "providerTheaterId": "",
      "name": "Regency Agoura Hills Stadium 8",
      "address": "29045 Agoura Rd.",
      "city": "Agoura Hills",
      "state": "CA",
      "zip": "91301",
      "distance": 12.99,
      "lon": -118.757105,
      "lat": 34.144355,
      "theaterChainName": "Regency Theatres",
      "ticketType": "STANDARD"
    },
    {
      "id": 164,
      "tribuneTheaterId": 9262,
      "providerTheaterId": "442",
      "name": "AMC Theatres Burbank Town Center 6",
      "address": "770 N. First St.",
      "city": "Burbank",
      "state": "CA",
      "zip": "91501",
      "distance": 12.88,
      "lon": -118.315325,
      "lat": 34.18484,
      "theaterChainName": "AMC Theatres",
      "ticketType": "STANDARD"
    },
    {
      "id": 2855,
      "tribuneTheaterId": 2588,
      "providerTheaterId": "",
      "name": "Egyptian Theatre - Hollywood",
      "address": "6712 Hollywood Blvd.",
      "city": "Hollywood",
      "state": "CA",
      "zip": "90028",
      "distance": 13.5,
      "lon": -118.336496,
      "lat": 34.100989,
      "theaterChainName": "American Cinematheque",
      "ticketType": "STANDARD"
    },
    {
      "id": 1603,
      "tribuneTheaterId": 5809,
      "providerTheaterId": "",
      "name": "Edwards Canyon Country Stadium 10",
      "address": "18800 Soledad Canyon Rd.",
      "city": "Canyon Country",
      "state": "CA",
      "zip": "91351",
      "distance": 15.47,
      "lon": -118.462851,
      "lat": 34.414585,
      "theaterChainName": "Edwards Theatres",
      "ticketType": "STANDARD"
    },
    {
      "id": 20,
      "tribuneTheaterId": 9275,
      "providerTheaterId": "209",
      "name": "AMC Theatres Burbank Town Center 8",
      "address": "201 E. Magnolia Blvd. #345",
      "city": "Burbank",
      "state": "CA",
      "zip": "91501",
      "distance": 13.07,
      "lon": -118.312151,
      "lat": 34.183604,
      "theaterChainName": "AMC Theatres",
      "ticketType": "STANDARD"
    },
    {
      "id": 3636,
      "tribuneTheaterId": 8983,
      "providerTheaterId": "218",
      "name": "AMC Burbank 16",
      "address": "125 E. Palm Ave.",
      "city": "Burbank",
      "state": "CA",
      "zip": "91502",
      "distance": 13.1,
      "lon": -118.311837,
      "lat": 34.181742,
      "theaterChainName": "AMC Theatres",
      "ticketType": "STANDARD"
    },
    {
      "id": 1619,
      "tribuneTheaterId": 6099,
      "providerTheaterId": "",
      "name": "New Beverly Cinema",
      "address": "7165 W. Beverly Blvd.",
      "city": "Los Angeles",
      "state": "CA",
      "zip": "90036",
      "distance": 14.04,
      "lon": -118.345398,
      "lat": 34.076099,
      "theaterChainName": "Independent Chains",
      "ticketType": "STANDARD"
    },
    {
      "id": 6127,
      "tribuneTheaterId": 11543,
      "providerTheaterId": "",
      "name": "Arena Cinelounge Sunset",
      "address": "6464 Sunset Blvd.",
      "city": "Hollywood",
      "state": "CA",
      "zip": "90028",
      "distance": 13.87,
      "lon": -118.3313,
      "lat": 34.097626,
      "theaterChainName": "Independent Chains",
      "ticketType": "STANDARD"
    },
    {
      "id": 5559,
      "tribuneTheaterId": 11006,
      "providerTheaterId": "446",
      "name": "AMC Marina Marketplace 6",
      "address": "4335 Glencoe",
      "city": "Marina del Rey",
      "state": "CA",
      "zip": "90292",
      "distance": 15.86,
      "lon": -118.43954,
      "lat": 33.986076,
      "theaterChainName": "AMC Theatres",
      "ticketType": "STANDARD"
    },
    {
      "id": 4862,
      "tribuneTheaterId": 10159,
      "providerTheaterId": "",
      "name": "Simi Valley 10 Cinemas",
      "address": "1457 E. Los Angeles Avenue",
      "city": "Simi Valley",
      "state": "CA",
      "zip": "93065",
      "distance": 14.12,
      "lon": -118.77072,
      "lat": 34.273284,
      "theaterChainName": "Tristone Cinemas",
      "ticketType": "STANDARD"
    },
    {
      "id": 5776,
      "tribuneTheaterId": 11216,
      "providerTheaterId": "",
      "name": "Studio Movie Grill Simi Valley",
      "address": "1555 Simi Town Center Way",
      "city": "Simi Valley",
      "state": "CA",
      "zip": "93065",
      "distance": 14.38,
      "lon": -118.7709,
      "lat": 34.2828,
      "theaterChainName": "Studio Movie Grill",
      "ticketType": "SELECT_SEATING"
    },
    {
      "id": 5616,
      "tribuneTheaterId": 11077,
      "providerTheaterId": "",
      "name": "Cinemark Playa Vista and XD",
      "address": "12746 W Jefferson Blvd",
      "city": "Los Angeles",
      "state": "CA",
      "zip": "90066",
      "distance": 16.92,
      "lon": -118.416474,
      "lat": 33.977491,
      "theaterChainName": "Cinemark",
      "ticketType": "STANDARD"
    }
  ]
}