{
  "theaters": [
    {
      "id": 551,
      "tribuneTheaterId": 5813,
      "providerTheaterId": "",
      "name": "Edwards Anaheim Hills 14",
      "address": "8032 E. Santa Ana Canyon Rd.",
      "city": "Anaheim",
      "state": "CA",
      "zip": "92808",
      "distance": 5.49,
      "lon": -117.752175,
      "lat": 33.86517,
      "theaterChainName": "Edwards Theatres",
      "ticketType": "STANDARD"
    },
    {
      "id": 1157,
      "tribuneTheaterId": 5210,
      "providerTheaterId": "",
      "name": "Cinemark Movies 8 Chino",
      "address": "5546 Philadelphia St.",
      "city": "Chino",
      "state": "CA",
      "zip": "91710",
      "distance": 6.84,
      "lon": -117.684807,
      "lat": 34.034579,
      "theaterChainName": "Cinemark",
      "ticketType": "STANDARD"
    },
    {
      "id": 863,
      "tribuneTheaterId": 5190,
      "providerTheaterId": "",
      "name": "Cinema City Stadium Theatres",
      "address": "5635 E. La Palma Ave.",
      "city": "Anaheim",
      "state": "CA",
      "zip": "92807",
      "distance": 6.84,
      "lon": -117.7918,
      "lat": 33.861026,
      "theaterChainName": "Independent Chains",
      "ticketType": "STANDARD"
    },
    {
      "id": 2298,
      "tribuneTheaterId": 9137,
      "providerTheaterId": "",
      "name": "Edwards Ontario Mountain Village Stadium 14",
      "address": "1575 N. Mountain Ave.",
      "city": "Ontario",
      "state": "CA",
      "zip": "91762",
      "distance": 10.47,
      "lon": -117.671219,
      "lat": 34.086072,
      "theaterChainName": "Edwards Theatres",
      "ticketType": "STANDARD"
    },
    {
      "id": 4391,
      "tribuneTheaterId": 9439,
      "providerTheaterId": "",
      "name": "Claremont 5",
      "address": "450 W. 2nd St.",
      "city": "Claremont",
      "state": "CA",
      "zip": "91711",
      "distance": 10.74,
      "lon": -117.720286,
      "lat": 34.095379,
      "theaterChainName": "Laemmle Theatres",
      "ticketType": "STANDARD"
    },
    {
      "id": 4940,
      "tribuneTheaterId": 10293,
      "providerTheaterId": "",
      "name": "Brea Plaza 5 Discount Cinemas",
      "address": "453 S. Associated Rd.",
      "city": "Brea",
      "state": "CA",
      "zip": "92821",
      "distance": 9.49,
      "lon": -117.8797,
      "lat": 33.9125,
      "theaterChainName": "Tristone Cinemas",
      "ticketType": "STANDARD"
    },
    {
      "id": 4423,
      "tribuneTheaterId": 9492,
      "providerTheaterId": "",
      "name": "Edwards Eastvale Gateway Stadium 14",
      "address": "12285 Limonite Ave.",
      "city": "Mira Loma",
      "state": "CA",
      "zip": "91752",
      "distance": 9.97,
      "lon": -117.551576,
      "lat": 33.975908,
      "theaterChainName": "Regal Cinemas",
      "ticketType": "STANDARD"
    },
    {
      "id": 102,
      "tribuneTheaterId": 9004,
      "providerTheaterId": "",
      "name": "Edwards La Verne Stadium 12",
      "address": "1950 Foothill Blvd.",
      "city": "La Verne",
      "state": "CA",
      "zip": "91750",
      "distance": 12.28,
      "lon": -117.768282,
      "lat": 34.11312,
      "theaterChainName": "Edwards Theatres",
      "ticketType": "STANDARD"
    },
    {
      "id": 3426,
      "tribuneTheaterId": 5810,
      "providerTheaterId": "",
      "name": "Edwards Brea Stadium East 12",
      "address": "155 W. Birch St.",
      "city": "Brea",
      "state": "CA",
      "zip": "92821",
      "distance": 10.42,
      "lon": -117.899909,
      "lat": 33.918615,
      "theaterChainName": "Edwards Theatres",
      "ticketType": "STANDARD"
    },
    {
      "id": 2282,
      "tribuneTheaterId": 5812,
      "providerTheaterId": "",
      "name": "Edwards Brea Stadium West 10",
      "address": "155 W. Birch St.",
      "city": "Brea",
      "state": "CA",
      "zip": "92821",
      "distance": 10.48,
      "lon": -117.901,
      "lat": 33.9189,
      "theaterChainName": "Edwards Theatres",
      "ticketType": "STANDARD"
    },
    {
      "id": 580,
      "tribuneTheaterId": 8524,
      "providerTheaterId": "",
      "name": "Century Stadium 25 and XD",
      "address": "1701 W. Katella Ave.",
      "city": "Orange",
      "state": "CA",
      "zip": "92867",
      "distance": 12.5,
      "lon": -117.8705,
      "lat": 33.8092,
      "theaterChainName": "Cinemark",
      "ticketType": "STANDARD"
    },
    {
      "id": 4588,
      "tribuneTheaterId": 9740,
      "providerTheaterId": "430",
      "name": "AMC Glendora 12",
      "address": "1337 E. Gladstone St.",
      "city": "Glendora",
      "state": "CA",
      "zip": "91740",
      "distance": 13.93,
      "lon": -117.836118,
      "lat": 34.117098,
      "theaterChainName": "AMC Theatres",
      "ticketType": "STANDARD"
    },
    {
      "id": 344,
      "tribuneTheaterId": 9177,
      "providerTheaterId": "249",
      "name": "AMC Puente Hills 20",
      "address": "1560 S. Azusa Ave.",
      "city": "City of Industry",
      "state": "CA",
      "zip": "91748",
      "distance": 12.42,
      "lon": -117.926517,
      "lat": 33.99447,
      "theaterChainName": "AMC Theatres",
      "ticketType": "STANDARD"
    },
    {
      "id": 17,
      "tribuneTheaterId": 9234,
      "providerTheaterId": "248",
      "name": "AMC Fullerton 20",
      "address": "1001 S. Lemon St.",
      "city": "Fullerton",
      "state": "CA",
      "zip": "92832",
      "distance": 12.7,
      "lon": -117.920423,
      "lat": 33.861739,
      "theaterChainName": "AMC Theatres",
      "ticketType": "STANDARD"
    },
    {
      "id": 266,
      "tribuneTheaterId": 9270,
      "providerTheaterId": "435",
      "name": "AMC Ontario Mills 30",
      "address": "4549 Mills Circle",
      "city": "Ontario",
      "state": "CA",
      "zip": "91764",
      "distance": 13.38,
      "lon": -117.552274,
      "lat": 34.074833,
      "theaterChainName": "AMC Theatres",
      "ticketType": "STANDARD"
    },
    {
      "id": 554,
      "tribuneTheaterId": 5820,
      "providerTheaterId": "",
      "name": "Edwards Ontario Palace Stadium 22 & IMAX",
      "address": "4900 E. 4th St.",
      "city": "Ontario",
      "state": "CA",
      "zip": "91764",
      "distance": 13.59,
      "lon": -117.54855,
      "lat": 34.075868,
      "theaterChainName": "Edwards Theatres",
      "ticketType": "STANDARD"
    },
    {
      "id": 4275,
      "tribuneTheaterId": 2020,
      "providerTheaterId": "",
      "name": "Picture Show at Main Place",
      "address": "2800 N. Main St. Suite 999",
      "city": "Santa Ana",
      "state": "CA",
      "zip": "92705",
      "distance": 14.19,
      "lon": -117.869267,
      "lat": 33.77632,
      "theaterChainName": "Picture Show Entertainment",
      "ticketType": "STANDARD"
    },
    {
      "id": 4436,
      "tribuneTheaterId": 9511,
      "providerTheaterId": "",
      "name": "Terra Vista 6",
      "address": "10701 Town Center Dr.",
      "city": "Rancho Cucamonga",
      "state": "CA",
      "zip": "91730",
      "distance": 14.5,
      "lon": -117.571717,
      "lat": 34.110042,
      "theaterChainName": "Tristone Cinemas",
      "ticketType": "STANDARD"
    },
    {
      "id": 1612,
      "tribuneTheaterId": 9079,
      "providerTheaterId": "",
      "name": "Edwards Marketplace Stadium 10",
      "address": "13782 Jamboree Road",
      "city": "Irvine",
      "state": "CA",
      "zip": "92602",
      "distance": 15.54,
      "lon": -117.790552,
      "lat": 33.722924,
      "theaterChainName": "Edwards Theatres",
      "ticketType": "STANDARD"
    },
    {
      "id": 1601,
      "tribuneTheaterId": 5278,
      "providerTheaterId": "437",
      "name": "AMC Orange 30",
      "address": "20 City Blvd. W.",
      "city": "Orange",
      "state": "CA",
      "zip": "92868",
      "distance": 14.76,
      "lon": -117.893815,
      "lat": 33.782466,
      "theaterChainName": "AMC Theatres",
      "ticketType": "STANDARD"
    },
    {
      "id": 3903,
      "tribuneTheaterId": 4855,
      "providerTheaterId": "",
      "name": "Edwards Corona Stadium 18",
      "address": "2650 Tuscany Street",
      "city": "Corona",
      "state": "CA",
      "zip": "92881",
      "distance": 14.23,
      "lon": -117.51601,
      "lat": 33.822852,
      "theaterChainName": "Edwards Theatres",
      "ticketType": "STANDARD"
    },
    {
      "id": 5490,
      "tribuneTheaterId": 10931,
      "providerTheaterId": "",
      "name": "The Frida Cinema",
      "address": "305 E 4th St",
      "city": "Santa Ana",
      "state": "CA",
      "zip": "92701",
      "distance": 15.66,
      "lon": -117.8654,
      "lat": 33.748,
      "theaterChainName": "Metropolitan Theatres",
      "ticketType": "STANDARD"
    },
    {
      "id": 2291,
      "tribuneTheaterId": 8197,
      "providerTheaterId": "",
      "name": "Regal La Habra Stadium 16",
      "address": "1351 W. Imperial Highway",
      "city": "La Habra",
      "state": "CA",
      "zip": "90631",
      "distance": 13.87,
      "lon": -117.960463,
      "lat": 33.918559,
      "theaterChainName": "Regal Cinemas",
      "ticketType": "STANDARD"
    },
    {
      "id": 555,
      "tribuneTheaterId": 5818,
      "providerTheaterId": "",
      "name": "Edwards West Covina Stadium 18",
      "address": "1200 Lakes Dr.",
      "city": "West Covina",
      "state": "CA",
      "zip": "91790",
      "distance": 14.74,
      "lon": -117.92355,
      "lat": 34.070569,
      "theaterChainName": "Edwards Theatres",
      "ticketType": "STANDARD"
    },
    {
      "id": 3097,
      "tribuneTheaterId": 5274,
      "providerTheaterId": "212",
      "name": "AMC Downtown Disney District 12",
      "address": "1565 Disneyland Drive",
      "city": "Anaheim",
      "state": "CA",
      "zip": "92802",
      "distance": 14.87,
      "lon": -117.925304,
      "lat": 33.808556,
      "theaterChainName": "AMC Theatres",
      "ticketType": "STANDARD"
    },
    {
      "id": 4936,
      "tribuneTheaterId": 10286,
      "providerTheaterId": "",
      "name": "Dos Lagos Stadium 15",
      "address": "2710 Lakeshore Drive",
      "city": "Corona",
      "state": "CA",
      "zip": "92883",
      "distance": 14.89,
      "lon": -117.509596,
      "lat": 33.813933,
      "theaterChainName": "Independent Chains",
      "ticketType": "STANDARD"
    },
    {
      "id": 548,
      "tribuneTheaterId": 8246,
      "providerTheaterId": "239",
      "name": "AMC Covina 30",
      "address": "1414 N. Azusa Ave.",
      "city": "Covina",
      "state": "CA",
      "zip": "91722",
      "distance": 15.67,
      "lon": -117.9075,
      "lat": 34.1051,
      "theaterChainName": "AMC Theatres",
      "ticketType": "STANDARD"
    },
    {
      "id": 99,
      "tribuneTheaterId": 8977,
      "providerTheaterId": "",
      "name": "Regency Foothill Cinema Stadium 10",
      "address": "854 E. Alosta Ave.",
      "city": "Azusa",
      "state": "CA",
      "zip": "91702",
      "distance": 16.29,
      "lon": -117.892027,
      "lat": 34.127729,
      "theaterChainName": "Regency Theatres",
      "ticketType": "STANDARD"
    },
    {
      "id": 3935,
      "tribuneTheaterId": 4245,
      "providerTheaterId": "237",
      "name": "AMC Victoria Gardens 12",
      "address": "12600 N. MainStreet",
      "city": "Rancho Cucamonga",
      "state": "CA",
      "zip": "91739",
      "distance": 16.14,
      "lon": -117.530176,
      "lat": 34.112695,
      "theaterChainName": "AMC Theatres",
      "ticketType": "STANDARD"
    },
    {
      "id": 5105,
      "tribuneTheaterId": 10501,
      "providerTheaterId": "",
      "name": "Jurupa 14 Cinemas",
      "address": "8032 Limonite Ave.",
      "city": "Riverside",
      "state": "CA",
      "zip": "92509",
      "distance": 15.16,
      "lon": -117.459233,
      "lat": 33.976415,
      "theaterChainName": "Tristone Cinemas",
      "ticketType": "STANDARD"
    },
    {
      "id": 4447,
      "tribuneTheaterId": 9527,
      "providerTheaterId": "422",
      "name": "AMC Tyler Galleria 16",
      "address": "3775 Tyler Ave.",
      "city": "Riverside",
      "state": "CA",
      "zip": "92503",
      "distance": 15.16,
      "lon": -117.457583,
      "lat": 33.912795,
      "theaterChainName": "AMC Theatres",
      "ticketType": "STANDARD"
    },
    {
      "id": 4382,
      "tribuneTheaterId": 9426,
      "providerTheaterId": "427",
      "name": "AMC Tustin 14 at The District",
      "address": "2457 Park Ave.",
      "city": "Tustin",
      "state": "CA",
      "zip": "92782",
      "distance": 17.94,
      "lon": -117.828906,
      "lat": 33.696675,
      "theaterChainName": "AMC Theatres",
      "ticketType": "STANDARD"
    },
    {
      "id": 2585,
      "tribuneTheaterId": 8198,
      "providerTheaterId": "",
      "name": "Regal Foothill Towne Center Stadium 22",
      "address": "26602 Towne Center Drive",
      "city": "Foothill Ranch",
      "state": "CA",
      "zip": "92610",
      "distance": 18.43,
      "lon": -117.668552,
      "lat": 33.676689,
      "theaterChainName": "Regal Cinemas",
      "ticketType": "STANDARD"
    },
    {
      "id": 3168,
      "tribuneTheaterId": 1857,
      "providerTheaterId": "",
      "name": "Woodbridge Movies 5",
      "address": "4626 Barranca Parkway",
      "city": "Irvine",
      "state": "CA",
      "zip": "92604",
      "distance": 18.7,
      "lon": -117.799847,
      "lat": 33.677555,
      "theaterChainName": "Starplex Cinemas",
      "ticketType": "STANDARD"
    },
    {
      "id": 95,
      "tribuneTheaterId": 8972,
      "providerTheaterId": "",
      "name": "Edwards Westpark 8",
      "address": "3755 Alton Parkway",
      "city": "Irvine",
      "state": "CA",
      "zip": "92606",
      "distance": 18.59,
      "lon": -117.81646,
      "lat": 33.683104,
      "theaterChainName": "Edwards Theatres",
      "ticketType": "STANDARD"
    },
    {
      "id": 3625,
      "tribuneTheaterId": 5879,
      "providerTheaterId": "",
      "name": "Krikorian Buena Park Metroplex 18",
      "address": "8290 La Palma Ave.",
      "city": "Buena Park",
      "state": "CA",
      "zip": "90620",
      "distance": 16.82,
      "lon": -117.989349,
      "lat": 33.843803,
      "theaterChainName": "Krikorian Theatres",
      "ticketType": "STANDARD"
    },
    {
      "id": 2579,
      "tribuneTheaterId": 7421,
      "providerTheaterId": "",
      "name": "Regal Garden Grove Stadium 16",
      "address": "9741 Chapman Ave.",
      "city": "Garden Grove",
      "state": "CA",
      "zip": "92841",
      "distance": 17.44,
      "lon": -117.9631,
      "lat": 33.7886,
      "theaterChainName": "Regal Cinemas",
      "ticketType": "STANDARD"
    },
    {
      "id": 3643,
      "tribuneTheaterId": 2052,
      "providerTheaterId": "",
      "name": "La Mirada Dollar Movie 7",
      "address": "15296 Rosecrans Avenue",
      "city": "La Mirada",
      "state": "CA",
      "zip": "90638",
      "distance": 16.63,
      "lon": -118.005513,
      "lat": 33.897404,
      "theaterChainName": "Starplex Cinemas",
      "ticketType": "STANDARD"
    },
    {
      "id": 167,
      "tribuneTheaterId": 9217,
      "providerTheaterId": "",
      "name": "Edwards Irvine Spectrum 21 IMAX & RPX",
      "address": "65 Fortune Drive",
      "city": "Irvine",
      "state": "CA",
      "zip": "92618",
      "distance": 19.96,
      "lon": -117.745406,
      "lat": 33.651914,
      "theaterChainName": "Edwards Theatres",
      "ticketType": "STANDARD"
    },
    {
      "id": 4333,
      "tribuneTheaterId": 9308,
      "providerTheaterId": "",
      "name": "Regency South Coast Village",
      "address": "1561 W. Sunflower Ave.",
      "city": "Santa Ana",
      "state": "CA",
      "zip": "92704",
      "distance": 19.52,
      "lon": -117.888913,
      "lat": 33.694769,
      "theaterChainName": "Regency Theatres",
      "ticketType": "STANDARD"
    }
  ]
}