{
  "theaters": [
    {
      "id": 344,
      "tribuneTheaterId": 9177,
      "providerTheaterId": "249",
      "name": "AMC Puente Hills 20",
      "address": "1560 S. Azusa Ave.",
      "city": "City of Industry",
      "state": "CA",
      "zip": "91748",
      "distance": 1.78,
      "lon": -117.926517,
      "lat": 33.99447,
      "theaterChainName": "AMC Theatres",
      "ticketType": "STANDARD"
    },
    {
      "id": 555,
      "tribuneTheaterId": 5818,
      "providerTheaterId": "",
      "name": "Edwards West Covina Stadium 18",
      "address": "1200 Lakes Dr.",
      "city": "West Covina",
      "state": "CA",
      "zip": "91790",
      "distance": 3.51,
      "lon": -117.92355,
      "lat": 34.070569,
      "theaterChainName": "Edwards Theatres",
      "ticketType": "STANDARD"
    },
    {
      "id": 548,
      "tribuneTheaterId": 8246,
      "providerTheaterId": "239",
      "name": "AMC Covina 30",
      "address": "1414 N. Azusa Ave.",
      "city": "Covina",
      "state": "CA",
      "zip": "91722",
      "distance": 6.02,
      "lon": -117.9075,
      "lat": 34.1051,
      "theaterChainName": "AMC Theatres",
      "ticketType": "STANDARD"
    },
    {
      "id": 2282,
      "tribuneTheaterId": 5812,
      "providerTheaterId": "",
      "name": "Edwards Brea Stadium West 10",
      "address": "155 W. Birch St.",
      "city": "Brea",
      "state": "CA",
      "zip": "92821",
      "distance": 7.18,
      "lon": -117.901,
      "lat": 33.9189,
      "theaterChainName": "Edwards Theatres",
      "ticketType": "STANDARD"
    },
    {
      "id": 3426,
      "tribuneTheaterId": 5810,
      "providerTheaterId": "",
      "name": "Edwards Brea Stadium East 12",
      "address": "155 W. Birch St.",
      "city": "Brea",
      "state": "CA",
      "zip": "92821",
      "distance": 7.21,
      "lon": -117.899909,
      "lat": 33.918615,
      "theaterChainName": "Edwards Theatres",
      "ticketType": "STANDARD"
    },
    {
      "id": 2291,
      "tribuneTheaterId": 8197,
      "providerTheaterId": "",
      "name": "Regal La Habra Stadium 16",
      "address": "1351 W. Imperial Highway",
      "city": "La Habra",
      "state": "CA",
      "zip": "90631",
      "distance": 7.22,
      "lon": -117.960463,
      "lat": 33.918559,
      "theaterChainName": "Regal Cinemas",
      "ticketType": "STANDARD"
    },
    {
      "id": 99,
      "tribuneTheaterId": 8977,
      "providerTheaterId": "",
      "name": "Regency Foothill Cinema Stadium 10",
      "address": "854 E. Alosta Ave.",
      "city": "Azusa",
      "state": "CA",
      "zip": "91702",
      "distance": 7.75,
      "lon": -117.892027,
      "lat": 34.127729,
      "theaterChainName": "Regency Theatres",
      "ticketType": "STANDARD"
    },
    {
      "id": 495,
      "tribuneTheaterId": 3071,
      "providerTheaterId": "",
      "name": "Whittier Village Stadium Cinemas",
      "address": "7038 Greenleaf Ave.",
      "city": "Whittier",
      "state": "CA",
      "zip": "90602",
      "distance": 6.79,
      "lon": -118.037209,
      "lat": 33.977937,
      "theaterChainName": "Independent Chains",
      "ticketType": "STANDARD"
    },
    {
      "id": 4940,
      "tribuneTheaterId": 10293,
      "providerTheaterId": "",
      "name": "Brea Plaza 5 Discount Cinemas",
      "address": "453 S. Associated Rd.",
      "city": "Brea",
      "state": "CA",
      "zip": "92821",
      "distance": 7.9,
      "lon": -117.8797,
      "lat": 33.9125,
      "theaterChainName": "Tristone Cinemas",
      "ticketType": "STANDARD"
    },
    {
      "id": 100,
      "tribuneTheaterId": 8973,
      "providerTheaterId": "",
      "name": "Edwards El Monte 8",
      "address": "10661 Valley Blvd.",
      "city": "El Monte",
      "state": "CA",
      "zip": "91731",
      "distance": 7.41,
      "lon": -118.03932,
      "lat": 34.077457,
      "theaterChainName": "Edwards Theatres",
      "ticketType": "STANDARD"
    },
    {
      "id": 4588,
      "tribuneTheaterId": 9740,
      "providerTheaterId": "430",
      "name": "AMC Glendora 12",
      "address": "1337 E. Gladstone St.",
      "city": "Glendora",
      "state": "CA",
      "zip": "91740",
      "distance": 8.6,
      "lon": -117.836118,
      "lat": 34.117098,
      "theaterChainName": "AMC Theatres",
      "ticketType": "STANDARD"
    },
    {
      "id": 3643,
      "tribuneTheaterId": 2052,
      "providerTheaterId": "",
      "name": "La Mirada Dollar Movie 7",
      "address": "15296 Rosecrans Avenue",
      "city": "La Mirada",
      "state": "CA",
      "zip": "90638",
      "distance": 9.51,
      "lon": -118.005513,
      "lat": 33.897404,
      "theaterChainName": "Starplex Cinemas",
      "ticketType": "STANDARD"
    },
    {
      "id": 3110,
      "tribuneTheaterId": 7772,
      "providerTheaterId": "",
      "name": "Krikorian Monrovia Cinema 12",
      "address": "410 S. Myrtle Ave.",
      "city": "Monrovia",
      "state": "CA",
      "zip": "91016",
      "distance": 9.71,
      "lon": -118.000651,
      "lat": 34.147691,
      "theaterChainName": "Krikorian Theatres",
      "ticketType": "STANDARD"
    },
    {
      "id": 17,
      "tribuneTheaterId": 9234,
      "providerTheaterId": "248",
      "name": "AMC Fullerton 20",
      "address": "1001 S. Lemon St.",
      "city": "Fullerton",
      "state": "CA",
      "zip": "92832",
      "distance": 10.95,
      "lon": -117.920423,
      "lat": 33.861739,
      "theaterChainName": "AMC Theatres",
      "ticketType": "STANDARD"
    },
    {
      "id": 767,
      "tribuneTheaterId": 6353,
      "providerTheaterId": "",
      "name": "Mann Plymouth Cinema 12",
      "address": "3400 Vicksburgh Lane",
      "city": "Plymouth",
      "state": "MN",
      "zip": "55447",
      "distance": 9.3,
      "lon": -118.091054,
      "lat": 34.002467,
      "theaterChainName": "Mann Theatres MN",
      "ticketType": "STANDARD"
    },
    {
      "id": 23,
      "tribuneTheaterId": 9144,
      "providerTheaterId": "232",
      "name": "AMC Montebello 10",
      "address": "1475 N. Montebello Blvd.",
      "city": "Montebello",
      "state": "CA",
      "zip": "90640",
      "distance": 9.37,
      "lon": -118.09276,
      "lat": 34.033716,
      "theaterChainName": "AMC Theatres",
      "ticketType": "STANDARD"
    },
    {
      "id": 3894,
      "tribuneTheaterId": 4246,
      "providerTheaterId": "206",
      "name": "AMC Santa Anita 16",
      "address": "400 S. Baldwin Ave. Ste. 940-U",
      "city": "Arcadia",
      "state": "CA",
      "zip": "91007",
      "distance": 10.47,
      "lon": -118.048718,
      "lat": 34.13527,
      "theaterChainName": "AMC Theatres",
      "ticketType": "STANDARD"
    },
    {
      "id": 198,
      "tribuneTheaterId": 9268,
      "providerTheaterId": "441",
      "name": "AMC Norwalk 20",
      "address": "12300 E. Civic Center Drive",
      "city": "Norwalk",
      "state": "CA",
      "zip": "90650",
      "distance": 10.93,
      "lon": -118.071206,
      "lat": 33.913718,
      "theaterChainName": "AMC Theatres",
      "ticketType": "STANDARD"
    },
    {
      "id": 3625,
      "tribuneTheaterId": 5879,
      "providerTheaterId": "",
      "name": "Krikorian Buena Park Metroplex 18",
      "address": "8290 La Palma Ave.",
      "city": "Buena Park",
      "state": "CA",
      "zip": "90620",
      "distance": 12.64,
      "lon": -117.989349,
      "lat": 33.843803,
      "theaterChainName": "Krikorian Theatres",
      "ticketType": "STANDARD"
    },
    {
      "id": 102,
      "tribuneTheaterId": 9004,
      "providerTheaterId": "",
      "name": "Edwards La Verne Stadium 12",
      "address": "1950 Foothill Blvd.",
      "city": "La Verne",
      "state": "CA",
      "zip": "91750",
      "distance": 11.27,
      "lon": -117.768282,
      "lat": 34.11312,
      "theaterChainName": "Edwards Theatres",
      "ticketType": "STANDARD"
    },
    {
      "id": 101,
      "tribuneTheaterId": 9271,
      "providerTheaterId": "",
      "name": "Edwards Cerritos Stadium 10",
      "address": "12761 Towne Center Drive",
      "city": "Cerritos",
      "state": "CA",
      "zip": "90701",
      "distance": 12.66,
      "lon": -118.059184,
      "lat": 33.87136,
      "theaterChainName": "Edwards Theatres",
      "ticketType": "STANDARD"
    },
    {
      "id": 4944,
      "tribuneTheaterId": 10299,
      "providerTheaterId": "2414",
      "name": "AMC Atlantic Times Square 14",
      "address": "450 N. Atlantic Blvd.",
      "city": "Monterey Park",
      "state": "CA",
      "zip": "91754",
      "distance": 12.13,
      "lon": -118.1343,
      "lat": 34.0669,
      "theaterChainName": "AMC Theatres",
      "ticketType": "STANDARD"
    },
    {
      "id": 863,
      "tribuneTheaterId": 5190,
      "providerTheaterId": "",
      "name": "Cinema City Stadium Theatres",
      "address": "5635 E. La Palma Ave.",
      "city": "Anaheim",
      "state": "CA",
      "zip": "92807",
      "distance": 13.54,
      "lon": -117.7918,
      "lat": 33.861026,
      "theaterChainName": "Independent Chains",
      "ticketType": "STANDARD"
    },
    {
      "id": 3570,
      "tribuneTheaterId": 8434,
      "providerTheaterId": "",
      "name": "Edwards Alhambra Renaissance Stadium 14 & IMAX",
      "address": "1 E. Main St",
      "city": "Alhambra",
      "state": "CA",
      "zip": "91801",
      "distance": 12.43,
      "lon": -118.126924,
      "lat": 34.095952,
      "theaterChainName": "Edwards Theatres",
      "ticketType": "STANDARD"
    },
    {
      "id": 3097,
      "tribuneTheaterId": 5274,
      "providerTheaterId": "212",
      "name": "AMC Downtown Disney District 12",
      "address": "1565 Disneyland Drive",
      "city": "Anaheim",
      "state": "CA",
      "zip": "92802",
      "distance": 14.61,
      "lon": -117.925304,
      "lat": 33.808556,
      "theaterChainName": "AMC Theatres",
      "ticketType": "STANDARD"
    },
    {
      "id": 1163,
      "tribuneTheaterId": 5877,
      "providerTheaterId": "",
      "name": "Krikorian Downey Cinema 10",
      "address": "8200 Third St.",
      "city": "Downey",
      "state": "CA",
      "zip": "90241",
      "distance": 12.83,
      "lon": -118.133302,
      "lat": 33.942263,
      "theaterChainName": "Krikorian Theatres",
      "ticketType": "STANDARD"
    },
    {
      "id": 580,
      "tribuneTheaterId": 8524,
      "providerTheaterId": "",
      "name": "Century Stadium 25 and XD",
      "address": "1701 W. Katella Ave.",
      "city": "Orange",
      "state": "CA",
      "zip": "92867",
      "distance": 14.96,
      "lon": -117.8705,
      "lat": 33.8092,
      "theaterChainName": "Cinemark",
      "ticketType": "STANDARD"
    },
    {
      "id": 5852,
      "tribuneTheaterId": 11264,
      "providerTheaterId": "",
      "name": "Cinemark Downey and XD",
      "address": "8840 Apollo Way",
      "city": "Downey",
      "state": "CA",
      "zip": "90242",
      "distance": 13.18,
      "lon": -118.128651,
      "lat": 33.923936,
      "theaterChainName": "Cinemark",
      "ticketType": "STANDARD"
    },
    {
      "id": 4391,
      "tribuneTheaterId": 9439,
      "providerTheaterId": "",
      "name": "Claremont 5",
      "address": "450 W. 2nd St.",
      "city": "Claremont",
      "state": "CA",
      "zip": "91711",
      "distance": 13.09,
      "lon": -117.720286,
      "lat": 34.095379,
      "theaterChainName": "Laemmle Theatres",
      "ticketType": "STANDARD"
    },
    {
      "id": 429,
      "tribuneTheaterId": 7765,
      "providerTheaterId": "",
      "name": "Commerce 14",
      "address": "950 Goodrich Blvd.",
      "city": "Commerce",
      "state": "CA",
      "zip": "90022",
      "distance": 12.82,
      "lon": -118.153861,
      "lat": 34.018411,
      "theaterChainName": "Regency Theatres",
      "ticketType": "STANDARD"
    },
    {
      "id": 2579,
      "tribuneTheaterId": 7421,
      "providerTheaterId": "",
      "name": "Regal Garden Grove Stadium 16",
      "address": "9741 Chapman Ave.",
      "city": "Garden Grove",
      "state": "CA",
      "zip": "92841",
      "distance": 16.1,
      "lon": -117.9631,
      "lat": 33.7886,
      "theaterChainName": "Regal Cinemas",
      "ticketType": "STANDARD"
    },
    {
      "id": 551,
      "tribuneTheaterId": 5813,
      "providerTheaterId": "",
      "name": "Edwards Anaheim Hills 14",
      "address": "8032 E. Santa Ana Canyon Rd.",
      "city": "Anaheim",
      "state": "CA",
      "zip": "92808",
      "distance": 14.78,
      "lon": -117.752175,
      "lat": 33.86517,
      "theaterChainName": "Edwards Theatres",
      "ticketType": "STANDARD"
    },
    {
      "id": 1601,
      "tribuneTheaterId": 5278,
      "providerTheaterId": "437",
      "name": "AMC Orange 30",
      "address": "20 City Blvd. W.",
      "city": "Orange",
      "state": "CA",
      "zip": "92868",
      "distance": 16.54,
      "lon": -117.893815,
      "lat": 33.782466,
      "theaterChainName": "AMC Theatres",
      "ticketType": "STANDARD"
    },
    {
      "id": 3117,
      "tribuneTheaterId": 8852,
      "providerTheaterId": "",
      "name": "Edwards South Gate Stadium 20 & IMAX",
      "address": "8630 Garfield Ave",
      "city": "South Gate",
      "state": "CA",
      "zip": "90280",
      "distance": 14.1,
      "lon": -118.161768,
      "lat": 33.951504,
      "theaterChainName": "Edwards Theatres",
      "ticketType": "STANDARD"
    },
    {
      "id": 2270,
      "tribuneTheaterId": 5824,
      "providerTheaterId": "",
      "name": "Laemmle Playhouse 7",
      "address": "673 E. Colorado Blvd.",
      "city": "Pasadena",
      "state": "CA",
      "zip": "91101",
      "distance": 14.68,
      "lon": -118.136445,
      "lat": 34.14603,
      "theaterChainName": "Laemmle Theatres",
      "ticketType": "STANDARD"
    },
    {
      "id": 1157,
      "tribuneTheaterId": 5210,
      "providerTheaterId": "",
      "name": "Cinemark Movies 8 Chino",
      "address": "5546 Philadelphia St.",
      "city": "Chino",
      "state": "CA",
      "zip": "91710",
      "distance": 14.08,
      "lon": -117.684807,
      "lat": 34.034579,
      "theaterChainName": "Cinemark",
      "ticketType": "STANDARD"
    },
    {
      "id": 2446,
      "tribuneTheaterId": 5821,
      "providerTheaterId": "",
      "name": "Edwards Long Beach 26 & IMAX",
      "address": "7501 E. Carson Blvd",
      "city": "Long Beach",
      "state": "CA",
      "zip": "90808",
      "distance": 15.88,
      "lon": -118.086816,
      "lat": 33.830553,
      "theaterChainName": "Edwards Theatres",
      "ticketType": "STANDARD"
    },
    {
      "id": 4275,
      "tribuneTheaterId": 2020,
      "providerTheaterId": "",
      "name": "Picture Show at Main Place",
      "address": "2800 N. Main St. Suite 999",
      "city": "Santa Ana",
      "state": "CA",
      "zip": "92705",
      "distance": 17.19,
      "lon": -117.869267,
      "lat": 33.77632,
      "theaterChainName": "Picture Show Entertainment",
      "ticketType": "STANDARD"
    },
    {
      "id": 852,
      "tribuneTheaterId": 6404,
      "providerTheaterId": "",
      "name": "4 Star Cinema",
      "address": "12111 Valley View St.",
      "city": "Garden Grove",
      "state": "CA",
      "zip": "92845",
      "distance": 17.11,
      "lon": -118.029245,
      "lat": 33.786461,
      "theaterChainName": "Independent Chains",
      "ticketType": "STANDARD"
    },
    {
      "id": 1645,
      "tribuneTheaterId": 3170,
      "providerTheaterId": "",
      "name": "Bianchi Stadium 11 Theatres",
      "address": "7770 Rosecrans Ave.",
      "city": "Paramount",
      "state": "CA",
      "zip": "90723",
      "distance": 15.63,
      "lon": -118.163382,
      "lat": 33.903045,
      "theaterChainName": "Independent Chains",
      "ticketType": "STANDARD"
    }
  ]
}