{
  "theaters": [
    {
      "id": 1486,
      "tribuneTheaterId": 6313,
      "providerTheaterId": "",
      "name": "Regal Rancho Del Rey Stadium 16",
      "address": "1025 Tierra Del Rey",
      "city": "Chula Vista",
      "state": "CA",
      "zip": "91910",
      "distance": 2.05,
      "lon": -117.019079,
      "lat": 32.638228,
      "theaterChainName": "Regal Cinemas",
      "ticketType": "STANDARD"
    },
    {
      "id": 2568,
      "tribuneTheaterId": 5277,
      "providerTheaterId": "235",
      "name": "AMC Palm Promenade 24",
      "address": "770 Dennery Rd",
      "city": "San Diego",
      "state": "CA",
      "zip": "92154",
      "distance": 2.18,
      "lon": -117.0343,
      "lat": 32.5797,
      "theaterChainName": "AMC Theatres",
      "ticketType": "STANDARD"
    },
    {
      "id": 4509,
      "tribuneTheaterId": 9615,
      "providerTheaterId": "429",
      "name": "AMC Plaza Bonita 14",
      "address": "3050 Plaza Bonita Rd.",
      "city": "National City",
      "state": "CA",
      "zip": "91950",
      "distance": 3.7,
      "lon": -117.065089,
      "lat": 32.654649,
      "theaterChainName": "AMC Theatres",
      "ticketType": "STANDARD"
    },
    {
      "id": 5499,
      "tribuneTheaterId": 11001,
      "providerTheaterId": "454",
      "name": "AMC Chula Vista 10",
      "address": "555 Broadway",
      "city": "Chula Vista",
      "state": "CA",
      "zip": "91910",
      "distance": 3.65,
      "lon": -117.0886,
      "lat": 32.628899,
      "theaterChainName": "AMC Theatres",
      "ticketType": "STANDARD"
    },
    {
      "id": 4446,
      "tribuneTheaterId": 9526,
      "providerTheaterId": "428",
      "name": "AMC Otay Ranch 12",
      "address": "2015 Birch Road Bldg 750",
      "city": "Chula Vista",
      "state": "CA",
      "zip": "91915",
      "distance": 3.87,
      "lon": -116.966136,
      "lat": 32.625696,
      "theaterChainName": "AMC Theatres",
      "ticketType": "STANDARD"
    },
    {
      "id": 2079,
      "tribuneTheaterId": 5816,
      "providerTheaterId": "",
      "name": "Edwards Rancho San Diego Stadium 15",
      "address": "2951 Jamacha Road",
      "city": "El Cajon",
      "state": "CA",
      "zip": "92019",
      "distance": 10.25,
      "lon": -116.939732,
      "lat": 32.737374,
      "theaterChainName": "Edwards Theatres",
      "ticketType": "STANDARD"
    },
    {
      "id": 86,
      "tribuneTheaterId": 7426,
      "providerTheaterId": "",
      "name": "United Artists Horton Plaza 14",
      "address": "475 Horton Plaza",
      "city": "San Diego",
      "state": "CA",
      "zip": "92101",
      "distance": 10.52,
      "lon": -117.1619,
      "lat": 32.7141,
      "theaterChainName": "United Artists",
      "ticketType": "STANDARD"
    },
    {
      "id": 5066,
      "tribuneTheaterId": 10449,
      "providerTheaterId": "",
      "name": "Vintage Village Theatres",
      "address": "820 Orange Ave.",
      "city": "Coronado",
      "state": "CA",
      "zip": "92118",
      "distance": 10.21,
      "lon": -117.178614,
      "lat": 32.688482,
      "theaterChainName": "Independent Chains",
      "ticketType": "STANDARD"
    },
    {
      "id": 42,
      "tribuneTheaterId": 5826,
      "providerTheaterId": "",
      "name": "Grossmont Center 10",
      "address": "5500 Grossmont Center Dr.",
      "city": "La Mesa",
      "state": "CA",
      "zip": "91942",
      "distance": 11.71,
      "lon": -117.010704,
      "lat": 32.778712,
      "theaterChainName": "Reading International, Inc",
      "ticketType": "STANDARD"
    },
    {
      "id": 128,
      "tribuneTheaterId": 8821,
      "providerTheaterId": "246",
      "name": "AMC Mission Valley 20",
      "address": "1640 Camino Del Rio North",
      "city": "San Diego",
      "state": "CA",
      "zip": "92108",
      "distance": 12.87,
      "lon": -117.148657,
      "lat": 32.767278,
      "theaterChainName": "AMC Theatres",
      "ticketType": "STANDARD"
    },
    {
      "id": 1610,
      "tribuneTheaterId": 5656,
      "providerTheaterId": "",
      "name": "Regal Parkway Plaza Stadium 18 & IMAX",
      "address": "405 Parkway Plaza",
      "city": "El Cajon",
      "state": "CA",
      "zip": "92020",
      "distance": 13.97,
      "lon": -116.967758,
      "lat": 32.805213,
      "theaterChainName": "Regal Cinemas",
      "ticketType": "STANDARD"
    },
    {
      "id": 6,
      "tribuneTheaterId": 7766,
      "providerTheaterId": "",
      "name": "UltraStar Mission Valley ",
      "address": "7510 Hazard Center Drive #100",
      "city": "San Diego",
      "state": "CA",
      "zip": "92108",
      "distance": 13.36,
      "lon": -117.159103,
      "lat": 32.769901,
      "theaterChainName": "UltraStar Cinemas",
      "ticketType": "STANDARD"
    },
    {
      "id": 835,
      "tribuneTheaterId": 7332,
      "providerTheaterId": "444",
      "name": "AMC Fashion Valley 18",
      "address": "7037 Friars Road",
      "city": "San Diego",
      "state": "CA",
      "zip": "92108",
      "distance": 13.45,
      "lon": -117.166043,
      "lat": 32.767371,
      "theaterChainName": "AMC Theatres",
      "ticketType": "STANDARD"
    },
    {
      "id": 44,
      "tribuneTheaterId": 5828,
      "providerTheaterId": "",
      "name": "Town Square Stadium",
      "address": "4665 Clairemont Dr.",
      "city": "San Diego",
      "state": "CA",
      "zip": "92117",
      "distance": 18.26,
      "lon": -117.205383,
      "lat": 32.829202,
      "theaterChainName": "Reading International, Inc",
      "ticketType": "STANDARD"
    },
    {
      "id": 3039,
      "tribuneTheaterId": 8744,
      "providerTheaterId": "",
      "name": "Edwards Mira Mesa Stadium 18 & IMAX",
      "address": "10733 Westview Parkway",
      "city": "San Diego",
      "state": "CA",
      "zip": "92126",
      "distance": 21.69,
      "lon": -117.117578,
      "lat": 32.915209,
      "theaterChainName": "Edwards Theatres",
      "ticketType": "STANDARD"
    },
    {
      "id": 106,
      "tribuneTheaterId": 5847,
      "providerTheaterId": "",
      "name": "Digiplex Poway ",
      "address": "13475 Poway Road",
      "city": "Poway",
      "state": "CA",
      "zip": "92064",
      "distance": 23.93,
      "lon": -117.039101,
      "lat": 32.956299,
      "theaterChainName": "Carmike Cinemas",
      "ticketType": "STANDARD"
    }
  ]
}