{
  "theaters": [
    {
      "id": 3935,
      "tribuneTheaterId": 4245,
      "providerTheaterId": "237",
      "name": "AMC Victoria Gardens 12",
      "address": "12600 N. MainStreet",
      "city": "Rancho Cucamonga",
      "state": "CA",
      "zip": "91739",
      "distance": 4.96,
      "lon": -117.530176,
      "lat": 34.112695,
      "theaterChainName": "AMC Theatres",
      "ticketType": "STANDARD"
    },
    {
      "id": 554,
      "tribuneTheaterId": 5820,
      "providerTheaterId": "",
      "name": "Edwards Ontario Palace Stadium 22 & IMAX",
      "address": "4900 E. 4th St.",
      "city": "Ontario",
      "state": "CA",
      "zip": "91764",
      "distance": 7.17,
      "lon": -117.54855,
      "lat": 34.075868,
      "theaterChainName": "Edwards Theatres",
      "ticketType": "STANDARD"
    },
    {
      "id": 266,
      "tribuneTheaterId": 9270,
      "providerTheaterId": "435",
      "name": "AMC Ontario Mills 30",
      "address": "4549 Mills Circle",
      "city": "Ontario",
      "state": "CA",
      "zip": "91764",
      "distance": 7.38,
      "lon": -117.552274,
      "lat": 34.074833,
      "theaterChainName": "AMC Theatres",
      "ticketType": "STANDARD"
    },
    {
      "id": 4436,
      "tribuneTheaterId": 9511,
      "providerTheaterId": "",
      "name": "Terra Vista 6",
      "address": "10701 Town Center Dr.",
      "city": "Rancho Cucamonga",
      "state": "CA",
      "zip": "91730",
      "distance": 7.26,
      "lon": -117.571717,
      "lat": 34.110042,
      "theaterChainName": "Tristone Cinemas",
      "ticketType": "STANDARD"
    },
    {
      "id": 5167,
      "tribuneTheaterId": 10574,
      "providerTheaterId": "",
      "name": "Regal San Bernardino Theatre Square Stadium 14 & RPX",
      "address": "450 N.E St.",
      "city": "San Bernardino",
      "state": "CA",
      "zip": "92401",
      "distance": 9.15,
      "lon": -117.294958,
      "lat": 34.107301,
      "theaterChainName": "Regal Cinemas",
      "ticketType": "STANDARD"
    },
    {
      "id": 5105,
      "tribuneTheaterId": 10501,
      "providerTheaterId": "",
      "name": "Jurupa 14 Cinemas",
      "address": "8032 Limonite Ave.",
      "city": "Riverside",
      "state": "CA",
      "zip": "92509",
      "distance": 11.32,
      "lon": -117.459233,
      "lat": 33.976415,
      "theaterChainName": "Tristone Cinemas",
      "ticketType": "STANDARD"
    },
    {
      "id": 4423,
      "tribuneTheaterId": 9492,
      "providerTheaterId": "",
      "name": "Edwards Eastvale Gateway Stadium 14",
      "address": "12285 Limonite Ave.",
      "city": "Mira Loma",
      "state": "CA",
      "zip": "91752",
      "distance": 12.74,
      "lon": -117.551576,
      "lat": 33.975908,
      "theaterChainName": "Regal Cinemas",
      "ticketType": "STANDARD"
    },
    {
      "id": 3904,
      "tribuneTheaterId": 4654,
      "providerTheaterId": "",
      "name": "Regal Riverside Plaza Stadium 16",
      "address": "3535 Riverside Plaza Dr.",
      "city": "Riverside",
      "state": "CA",
      "zip": "92506",
      "distance": 13.18,
      "lon": -117.390008,
      "lat": 33.955813,
      "theaterChainName": "Regal Cinemas",
      "ticketType": "STANDARD"
    },
    {
      "id": 5129,
      "tribuneTheaterId": 10535,
      "providerTheaterId": "",
      "name": "Regency University Village 10 - Riverside",
      "address": "1201 A University Ave.",
      "city": "Riverside",
      "state": "CA",
      "zip": "92507",
      "distance": 12.98,
      "lon": -117.337574,
      "lat": 33.976831,
      "theaterChainName": "Regency Theatres",
      "ticketType": "STANDARD"
    },
    {
      "id": 4853,
      "tribuneTheaterId": 10147,
      "providerTheaterId": "",
      "name": "Regency Sterling 6",
      "address": "2373 Sterling Ave.",
      "city": "San Bernardino",
      "state": "CA",
      "zip": "92404",
      "distance": 11.8,
      "lon": -117.243599,
      "lat": 34.137901,
      "theaterChainName": "Regency Theatres",
      "ticketType": "STANDARD"
    },
    {
      "id": 4447,
      "tribuneTheaterId": 9527,
      "providerTheaterId": "422",
      "name": "AMC Tyler Galleria 16",
      "address": "3775 Tyler Ave.",
      "city": "Riverside",
      "state": "CA",
      "zip": "92503",
      "distance": 15.71,
      "lon": -117.457583,
      "lat": 33.912795,
      "theaterChainName": "AMC Theatres",
      "ticketType": "STANDARD"
    },
    {
      "id": 2298,
      "tribuneTheaterId": 9137,
      "providerTheaterId": "",
      "name": "Edwards Ontario Mountain Village Stadium 14",
      "address": "1575 N. Mountain Ave.",
      "city": "Ontario",
      "state": "CA",
      "zip": "91762",
      "distance": 13.19,
      "lon": -117.671219,
      "lat": 34.086072,
      "theaterChainName": "Edwards Theatres",
      "ticketType": "STANDARD"
    },
    {
      "id": 5711,
      "tribuneTheaterId": 11153,
      "providerTheaterId": "",
      "name": "Galaxy Mission Grove 18",
      "address": "121 East Alessandro Blvd.",
      "city": "Riverside",
      "state": "CA",
      "zip": "92508",
      "distance": 16.97,
      "lon": -117.330357,
      "lat": 33.9153,
      "theaterChainName": "Galaxy Theatres",
      "ticketType": "STANDARD"
    },
    {
      "id": 1157,
      "tribuneTheaterId": 5210,
      "providerTheaterId": "",
      "name": "Cinemark Movies 8 Chino",
      "address": "5546 Philadelphia St.",
      "city": "Chino",
      "state": "CA",
      "zip": "91710",
      "distance": 15.28,
      "lon": -117.684807,
      "lat": 34.034579,
      "theaterChainName": "Cinemark",
      "ticketType": "STANDARD"
    },
    {
      "id": 1820,
      "tribuneTheaterId": 2889,
      "providerTheaterId": "",
      "name": "Blue Jay Cinema",
      "address": "27215 N Bay Rd.",
      "city": "Blue Jay",
      "state": "CA",
      "zip": "92317",
      "distance": 15.75,
      "lon": -117.207057,
      "lat": 34.247733,
      "theaterChainName": "Independent Chains",
      "ticketType": "STANDARD"
    },
    {
      "id": 4391,
      "tribuneTheaterId": 9439,
      "providerTheaterId": "",
      "name": "Claremont 5",
      "address": "450 W. 2nd St.",
      "city": "Claremont",
      "state": "CA",
      "zip": "91711",
      "distance": 15.77,
      "lon": -117.720286,
      "lat": 34.095379,
      "theaterChainName": "Laemmle Theatres",
      "ticketType": "STANDARD"
    },
    {
      "id": 1164,
      "tribuneTheaterId": 5878,
      "providerTheaterId": "",
      "name": "Krikorian Redlands Cinema 14",
      "address": "340 N. Eureka St.",
      "city": "Redlands",
      "state": "CA",
      "zip": "92373",
      "distance": 16.13,
      "lon": -117.185898,
      "lat": 34.058255,
      "theaterChainName": "Krikorian Theatres",
      "ticketType": "STANDARD"
    },
    {
      "id": 5246,
      "tribuneTheaterId": 10674,
      "providerTheaterId": "",
      "name": "Civic Plaza 12",
      "address": "9711 Ninth St.",
      "city": "Hesperia",
      "state": "CA",
      "zip": "92340",
      "distance": 21.2,
      "lon": -117.2778,
      "lat": 34.418,
      "theaterChainName": "CinemaWest",
      "ticketType": "STANDARD"
    },
    {
      "id": 102,
      "tribuneTheaterId": 9004,
      "providerTheaterId": "",
      "name": "Edwards La Verne Stadium 12",
      "address": "1950 Foothill Blvd.",
      "city": "La Verne",
      "state": "CA",
      "zip": "91750",
      "distance": 18.3,
      "lon": -117.768282,
      "lat": 34.11312,
      "theaterChainName": "Edwards Theatres",
      "ticketType": "STANDARD"
    },
    {
      "id": 3903,
      "tribuneTheaterId": 4855,
      "providerTheaterId": "",
      "name": "Edwards Corona Stadium 18",
      "address": "2650 Tuscany Street",
      "city": "Corona",
      "state": "CA",
      "zip": "92881",
      "distance": 22.24,
      "lon": -117.51601,
      "lat": 33.822852,
      "theaterChainName": "Edwards Theatres",
      "ticketType": "STANDARD"
    },
    {
      "id": 4936,
      "tribuneTheaterId": 10286,
      "providerTheaterId": "",
      "name": "Dos Lagos Stadium 15",
      "address": "2710 Lakeshore Drive",
      "city": "Corona",
      "state": "CA",
      "zip": "92883",
      "distance": 22.79,
      "lon": -117.509596,
      "lat": 33.813933,
      "theaterChainName": "Independent Chains",
      "ticketType": "STANDARD"
    },
    {
      "id": 4285,
      "tribuneTheaterId": 4175,
      "providerTheaterId": "",
      "name": "Cinemark 16 Victorville and XD",
      "address": "14470 Bear Valley Rd.",
      "city": "Victorville",
      "state": "CA",
      "zip": "92392",
      "distance": 23.84,
      "lon": -117.34834,
      "lat": 34.474689,
      "theaterChainName": "Cinemark",
      "ticketType": "STANDARD"
    },
    {
      "id": 1343,
      "tribuneTheaterId": 4172,
      "providerTheaterId": "",
      "name": "Cinemark  Movies 10 Victorville",
      "address": "12353 Mariposa Rd.",
      "city": "Victorville",
      "state": "CA",
      "zip": "92392",
      "distance": 24.08,
      "lon": -117.339303,
      "lat": 34.476277,
      "theaterChainName": "Cinemark",
      "ticketType": "STANDARD"
    },
    {
      "id": 4713,
      "tribuneTheaterId": 9928,
      "providerTheaterId": "",
      "name": "Cinemark Jess Ranch",
      "address": "18935 Bear Valley Road",
      "city": "Apple Valley",
      "state": "CA",
      "zip": "92308",
      "distance": 25.33,
      "lon": -117.250342,
      "lat": 34.4674,
      "theaterChainName": "Cinemark",
      "ticketType": "STANDARD"
    },
    {
      "id": 4588,
      "tribuneTheaterId": 9740,
      "providerTheaterId": "430",
      "name": "AMC Glendora 12",
      "address": "1337 E. Gladstone St.",
      "city": "Glendora",
      "state": "CA",
      "zip": "91740",
      "distance": 22.14,
      "lon": -117.836118,
      "lat": 34.117098,
      "theaterChainName": "AMC Theatres",
      "ticketType": "STANDARD"
    },
    {
      "id": 4459,
      "tribuneTheaterId": 9550,
      "providerTheaterId": "",
      "name": "Regency Perris 10",
      "address": "1688 N. Perris Blvd.",
      "city": "Perris",
      "state": "CA",
      "zip": "92571",
      "distance": 26.57,
      "lon": -117.228274,
      "lat": 33.802282,
      "theaterChainName": "Regency Theatres",
      "ticketType": "STANDARD"
    },
    {
      "id": 551,
      "tribuneTheaterId": 5813,
      "providerTheaterId": "",
      "name": "Edwards Anaheim Hills 14",
      "address": "8032 E. Santa Ana Canyon Rd.",
      "city": "Anaheim",
      "state": "CA",
      "zip": "92808",
      "distance": 25.69,
      "lon": -117.752175,
      "lat": 33.86517,
      "theaterChainName": "Edwards Theatres",
      "ticketType": "STANDARD"
    },
    {
      "id": 4439,
      "tribuneTheaterId": 9515,
      "providerTheaterId": "",
      "name": "UltraStar Apple Valley 14",
      "address": "22311 Bear Valley Rd.",
      "city": "Apple Valley",
      "state": "CA",
      "zip": "92308",
      "distance": 27.71,
      "lon": -117.176697,
      "lat": 34.4715,
      "theaterChainName": "Carmike Cinemas",
      "ticketType": "STANDARD"
    },
    {
      "id": 863,
      "tribuneTheaterId": 5190,
      "providerTheaterId": "",
      "name": "Cinema City Stadium Theatres",
      "address": "5635 E. La Palma Ave.",
      "city": "Anaheim",
      "state": "CA",
      "zip": "92807",
      "distance": 27.48,
      "lon": -117.7918,
      "lat": 33.861026,
      "theaterChainName": "Independent Chains",
      "ticketType": "STANDARD"
    },
    {
      "id": 99,
      "tribuneTheaterId": 8977,
      "providerTheaterId": "",
      "name": "Regency Foothill Cinema Stadium 10",
      "address": "854 E. Alosta Ave.",
      "city": "Azusa",
      "state": "CA",
      "zip": "91702",
      "distance": 25.3,
      "lon": -117.892027,
      "lat": 34.127729,
      "theaterChainName": "Regency Theatres",
      "ticketType": "STANDARD"
    },
    {
      "id": 548,
      "tribuneTheaterId": 8246,
      "providerTheaterId": "239",
      "name": "AMC Covina 30",
      "address": "1414 N. Azusa Ave.",
      "city": "Covina",
      "state": "CA",
      "zip": "91722",
      "distance": 26.28,
      "lon": -117.9075,
      "lat": 34.1051,
      "theaterChainName": "AMC Theatres",
      "ticketType": "STANDARD"
    },
    {
      "id": 555,
      "tribuneTheaterId": 5818,
      "providerTheaterId": "",
      "name": "Edwards West Covina Stadium 18",
      "address": "1200 Lakes Dr.",
      "city": "West Covina",
      "state": "CA",
      "zip": "91790",
      "distance": 27.51,
      "lon": -117.92355,
      "lat": 34.070569,
      "theaterChainName": "Edwards Theatres",
      "ticketType": "STANDARD"
    },
    {
      "id": 4940,
      "tribuneTheaterId": 10293,
      "providerTheaterId": "",
      "name": "Brea Plaza 5 Discount Cinemas",
      "address": "453 S. Associated Rd.",
      "city": "Brea",
      "state": "CA",
      "zip": "92821",
      "distance": 29.31,
      "lon": -117.8797,
      "lat": 33.9125,
      "theaterChainName": "Tristone Cinemas",
      "ticketType": "STANDARD"
    },
    {
      "id": 344,
      "tribuneTheaterId": 9177,
      "providerTheaterId": "249",
      "name": "AMC Puente Hills 20",
      "address": "1560 S. Azusa Ave.",
      "city": "City of Industry",
      "state": "CA",
      "zip": "91748",
      "distance": 29.07,
      "lon": -117.926517,
      "lat": 33.99447,
      "theaterChainName": "AMC Theatres",
      "ticketType": "STANDARD"
    },
    {
      "id": 3426,
      "tribuneTheaterId": 5810,
      "providerTheaterId": "",
      "name": "Edwards Brea Stadium East 12",
      "address": "155 W. Birch St.",
      "city": "Brea",
      "state": "CA",
      "zip": "92821",
      "distance": 29.96,
      "lon": -117.899909,
      "lat": 33.918615,
      "theaterChainName": "Edwards Theatres",
      "ticketType": "STANDARD"
    },
    {
      "id": 2282,
      "tribuneTheaterId": 5812,
      "providerTheaterId": "",
      "name": "Edwards Brea Stadium West 10",
      "address": "155 W. Birch St.",
      "city": "Brea",
      "state": "CA",
      "zip": "92821",
      "distance": 30.01,
      "lon": -117.901,
      "lat": 33.9189,
      "theaterChainName": "Edwards Theatres",
      "ticketType": "STANDARD"
    },
    {
      "id": 589,
      "tribuneTheaterId": 2081,
      "providerTheaterId": "",
      "name": "Diamond Cinemas",
      "address": "32260 Mission Trail",
      "city": "Lake Elsinore",
      "state": "CA",
      "zip": "92530",
      "distance": 34.77,
      "lon": -117.295812,
      "lat": 33.653362,
      "theaterChainName": "UEC Theatres",
      "ticketType": "STANDARD"
    },
    {
      "id": 2585,
      "tribuneTheaterId": 8198,
      "providerTheaterId": "",
      "name": "Regal Foothill Towne Center Stadium 22",
      "address": "26602 Towne Center Drive",
      "city": "Foothill Ranch",
      "state": "CA",
      "zip": "92610",
      "distance": 34.38,
      "lon": -117.668552,
      "lat": 33.676689,
      "theaterChainName": "Regal Cinemas",
      "ticketType": "STANDARD"
    },
    {
      "id": 580,
      "tribuneTheaterId": 8524,
      "providerTheaterId": "",
      "name": "Century Stadium 25 and XD",
      "address": "1701 W. Katella Ave.",
      "city": "Orange",
      "state": "CA",
      "zip": "92867",
      "distance": 33.21,
      "lon": -117.8705,
      "lat": 33.8092,
      "theaterChainName": "Cinemark",
      "ticketType": "STANDARD"
    },
    {
      "id": 1612,
      "tribuneTheaterId": 9079,
      "providerTheaterId": "",
      "name": "Edwards Marketplace Stadium 10",
      "address": "13782 Jamboree Road",
      "city": "Irvine",
      "state": "CA",
      "zip": "92602",
      "distance": 34.81,
      "lon": -117.790552,
      "lat": 33.722924,
      "theaterChainName": "Edwards Theatres",
      "ticketType": "STANDARD"
    }
  ]
}