{
  "theaters": [
    {
      "id": 5246,
      "tribuneTheaterId": 10674,
      "providerTheaterId": "",
      "name": "Civic Plaza 12",
      "address": "9711 Ninth St.",
      "city": "Hesperia",
      "state": "CA",
      "zip": "92340",
      "distance": 4.64,
      "lon": -117.2778,
      "lat": 34.418,
      "theaterChainName": "CinemaWest",
      "ticketType": "STANDARD"
    },
    {
      "id": 1343,
      "tribuneTheaterId": 4172,
      "providerTheaterId": "",
      "name": "Cinemark  Movies 10 Victorville",
      "address": "12353 Mariposa Rd.",
      "city": "Victorville",
      "state": "CA",
      "zip": "92392",
      "distance": 8.11,
      "lon": -117.339303,
      "lat": 34.476277,
      "theaterChainName": "Cinemark",
      "ticketType": "STANDARD"
    },
    {
      "id": 4285,
      "tribuneTheaterId": 4175,
      "providerTheaterId": "",
      "name": "Cinemark 16 Victorville and XD",
      "address": "14470 Bear Valley Rd.",
      "city": "Victorville",
      "state": "CA",
      "zip": "92392",
      "distance": 8.09,
      "lon": -117.34834,
      "lat": 34.474689,
      "theaterChainName": "Cinemark",
      "ticketType": "STANDARD"
    },
    {
      "id": 4713,
      "tribuneTheaterId": 9928,
      "providerTheaterId": "",
      "name": "Cinemark Jess Ranch",
      "address": "18935 Bear Valley Road",
      "city": "Apple Valley",
      "state": "CA",
      "zip": "92308",
      "distance": 8.42,
      "lon": -117.250342,
      "lat": 34.4674,
      "theaterChainName": "Cinemark",
      "ticketType": "STANDARD"
    },
    {
      "id": 1820,
      "tribuneTheaterId": 2889,
      "providerTheaterId": "",
      "name": "Blue Jay Cinema",
      "address": "27215 N Bay Rd.",
      "city": "Blue Jay",
      "state": "CA",
      "zip": "92317",
      "distance": 10.09,
      "lon": -117.207057,
      "lat": 34.247733,
      "theaterChainName": "Independent Chains",
      "ticketType": "STANDARD"
    },
    {
      "id": 4439,
      "tribuneTheaterId": 9515,
      "providerTheaterId": "",
      "name": "UltraStar Apple Valley 14",
      "address": "22311 Bear Valley Rd.",
      "city": "Apple Valley",
      "state": "CA",
      "zip": "92308",
      "distance": 11.23,
      "lon": -117.176697,
      "lat": 34.4715,
      "theaterChainName": "Carmike Cinemas",
      "ticketType": "STANDARD"
    },
    {
      "id": 4853,
      "tribuneTheaterId": 10147,
      "providerTheaterId": "",
      "name": "Regency Sterling 6",
      "address": "2373 Sterling Ave.",
      "city": "San Bernardino",
      "state": "CA",
      "zip": "92404",
      "distance": 15.95,
      "lon": -117.243599,
      "lat": 34.137901,
      "theaterChainName": "Regency Theatres",
      "ticketType": "STANDARD"
    },
    {
      "id": 5167,
      "tribuneTheaterId": 10574,
      "providerTheaterId": "",
      "name": "Regal San Bernardino Theatre Square Stadium 14 & RPX",
      "address": "450 N.E St.",
      "city": "San Bernardino",
      "state": "CA",
      "zip": "92401",
      "distance": 17.52,
      "lon": -117.294958,
      "lat": 34.107301,
      "theaterChainName": "Regal Cinemas",
      "ticketType": "STANDARD"
    },
    {
      "id": 3935,
      "tribuneTheaterId": 4245,
      "providerTheaterId": "237",
      "name": "AMC Victoria Gardens 12",
      "address": "12600 N. MainStreet",
      "city": "Rancho Cucamonga",
      "state": "CA",
      "zip": "91739",
      "distance": 20.88,
      "lon": -117.530176,
      "lat": 34.112695,
      "theaterChainName": "AMC Theatres",
      "ticketType": "STANDARD"
    },
    {
      "id": 1164,
      "tribuneTheaterId": 5878,
      "providerTheaterId": "",
      "name": "Krikorian Redlands Cinema 14",
      "address": "340 N. Eureka St.",
      "city": "Redlands",
      "state": "CA",
      "zip": "92373",
      "distance": 22.21,
      "lon": -117.185898,
      "lat": 34.058255,
      "theaterChainName": "Krikorian Theatres",
      "ticketType": "STANDARD"
    },
    {
      "id": 4436,
      "tribuneTheaterId": 9511,
      "providerTheaterId": "",
      "name": "Terra Vista 6",
      "address": "10701 Town Center Dr.",
      "city": "Rancho Cucamonga",
      "state": "CA",
      "zip": "91730",
      "distance": 22.47,
      "lon": -117.571717,
      "lat": 34.110042,
      "theaterChainName": "Tristone Cinemas",
      "ticketType": "STANDARD"
    },
    {
      "id": 554,
      "tribuneTheaterId": 5820,
      "providerTheaterId": "",
      "name": "Edwards Ontario Palace Stadium 22 & IMAX",
      "address": "4900 E. 4th St.",
      "city": "Ontario",
      "state": "CA",
      "zip": "91764",
      "distance": 23.58,
      "lon": -117.54855,
      "lat": 34.075868,
      "theaterChainName": "Edwards Theatres",
      "ticketType": "STANDARD"
    },
    {
      "id": 266,
      "tribuneTheaterId": 9270,
      "providerTheaterId": "435",
      "name": "AMC Ontario Mills 30",
      "address": "4549 Mills Circle",
      "city": "Ontario",
      "state": "CA",
      "zip": "91764",
      "distance": 23.76,
      "lon": -117.552274,
      "lat": 34.074833,
      "theaterChainName": "AMC Theatres",
      "ticketType": "STANDARD"
    },
    {
      "id": 5129,
      "tribuneTheaterId": 10535,
      "providerTheaterId": "",
      "name": "Regency University Village 10 - Riverside",
      "address": "1201 A University Ave.",
      "city": "Riverside",
      "state": "CA",
      "zip": "92507",
      "distance": 26.49,
      "lon": -117.337574,
      "lat": 33.976831,
      "theaterChainName": "Regency Theatres",
      "ticketType": "STANDARD"
    },
    {
      "id": 5105,
      "tribuneTheaterId": 10501,
      "providerTheaterId": "",
      "name": "Jurupa 14 Cinemas",
      "address": "8032 Limonite Ave.",
      "city": "Riverside",
      "state": "CA",
      "zip": "92509",
      "distance": 27.67,
      "lon": -117.459233,
      "lat": 33.976415,
      "theaterChainName": "Tristone Cinemas",
      "ticketType": "STANDARD"
    },
    {
      "id": 3904,
      "tribuneTheaterId": 4654,
      "providerTheaterId": "",
      "name": "Regal Riverside Plaza Stadium 16",
      "address": "3535 Riverside Plaza Dr.",
      "city": "Riverside",
      "state": "CA",
      "zip": "92506",
      "distance": 28.21,
      "lon": -117.390008,
      "lat": 33.955813,
      "theaterChainName": "Regal Cinemas",
      "ticketType": "STANDARD"
    },
    {
      "id": 5711,
      "tribuneTheaterId": 11153,
      "providerTheaterId": "",
      "name": "Galaxy Mission Grove 18",
      "address": "121 East Alessandro Blvd.",
      "city": "Riverside",
      "state": "CA",
      "zip": "92508",
      "distance": 30.73,
      "lon": -117.330357,
      "lat": 33.9153,
      "theaterChainName": "Galaxy Theatres",
      "ticketType": "STANDARD"
    },
    {
      "id": 2298,
      "tribuneTheaterId": 9137,
      "providerTheaterId": "",
      "name": "Edwards Ontario Mountain Village Stadium 14",
      "address": "1575 N. Mountain Ave.",
      "city": "Ontario",
      "state": "CA",
      "zip": "91762",
      "distance": 27.58,
      "lon": -117.671219,
      "lat": 34.086072,
      "theaterChainName": "Edwards Theatres",
      "ticketType": "STANDARD"
    },
    {
      "id": 4423,
      "tribuneTheaterId": 9492,
      "providerTheaterId": "",
      "name": "Edwards Eastvale Gateway Stadium 14",
      "address": "12285 Limonite Ave.",
      "city": "Mira Loma",
      "state": "CA",
      "zip": "91752",
      "distance": 29.66,
      "lon": -117.551576,
      "lat": 33.975908,
      "theaterChainName": "Regal Cinemas",
      "ticketType": "STANDARD"
    },
    {
      "id": 4447,
      "tribuneTheaterId": 9527,
      "providerTheaterId": "422",
      "name": "AMC Tyler Galleria 16",
      "address": "3775 Tyler Ave.",
      "city": "Riverside",
      "state": "CA",
      "zip": "92503",
      "distance": 31.89,
      "lon": -117.457583,
      "lat": 33.912795,
      "theaterChainName": "AMC Theatres",
      "ticketType": "STANDARD"
    },
    {
      "id": 4391,
      "tribuneTheaterId": 9439,
      "providerTheaterId": "",
      "name": "Claremont 5",
      "address": "450 W. 2nd St.",
      "city": "Claremont",
      "state": "CA",
      "zip": "91711",
      "distance": 29.28,
      "lon": -117.720286,
      "lat": 34.095379,
      "theaterChainName": "Laemmle Theatres",
      "ticketType": "STANDARD"
    },
    {
      "id": 1157,
      "tribuneTheaterId": 5210,
      "providerTheaterId": "",
      "name": "Cinemark Movies 8 Chino",
      "address": "5546 Philadelphia St.",
      "city": "Chino",
      "state": "CA",
      "zip": "91710",
      "distance": 30.66,
      "lon": -117.684807,
      "lat": 34.034579,
      "theaterChainName": "Cinemark",
      "ticketType": "STANDARD"
    },
    {
      "id": 102,
      "tribuneTheaterId": 9004,
      "providerTheaterId": "",
      "name": "Edwards La Verne Stadium 12",
      "address": "1950 Foothill Blvd.",
      "city": "La Verne",
      "state": "CA",
      "zip": "91750",
      "distance": 30.77,
      "lon": -117.768282,
      "lat": 34.11312,
      "theaterChainName": "Edwards Theatres",
      "ticketType": "STANDARD"
    },
    {
      "id": 4588,
      "tribuneTheaterId": 9740,
      "providerTheaterId": "430",
      "name": "AMC Glendora 12",
      "address": "1337 E. Gladstone St.",
      "city": "Glendora",
      "state": "CA",
      "zip": "91740",
      "distance": 33.92,
      "lon": -117.836118,
      "lat": 34.117098,
      "theaterChainName": "AMC Theatres",
      "ticketType": "STANDARD"
    }
  ]
}