{
  "theaters": [
    {
      "id": 2579,
      "tribuneTheaterId": 7421,
      "providerTheaterId": "",
      "name": "Regal Garden Grove Stadium 16",
      "address": "9741 Chapman Ave.",
      "city": "Garden Grove",
      "state": "CA",
      "zip": "92841",
      "distance": 1.53,
      "lon": -117.9631,
      "lat": 33.7886,
      "theaterChainName": "Regal Cinemas",
      "ticketType": "STANDARD"
    },
    {
      "id": 3625,
      "tribuneTheaterId": 5879,
      "providerTheaterId": "",
      "name": "Krikorian Buena Park Metroplex 18",
      "address": "8290 La Palma Ave.",
      "city": "Buena Park",
      "state": "CA",
      "zip": "90620",
      "distance": 2.59,
      "lon": -117.989349,
      "lat": 33.843803,
      "theaterChainName": "Krikorian Theatres",
      "ticketType": "STANDARD"
    },
    {
      "id": 3097,
      "tribuneTheaterId": 5274,
      "providerTheaterId": "212",
      "name": "AMC Downtown Disney District 12",
      "address": "1565 Disneyland Drive",
      "city": "Anaheim",
      "state": "CA",
      "zip": "92802",
      "distance": 2.57,
      "lon": -117.925304,
      "lat": 33.808556,
      "theaterChainName": "AMC Theatres",
      "ticketType": "STANDARD"
    },
    {
      "id": 852,
      "tribuneTheaterId": 6404,
      "providerTheaterId": "",
      "name": "4 Star Cinema",
      "address": "12111 Valley View St.",
      "city": "Garden Grove",
      "state": "CA",
      "zip": "92845",
      "distance": 3.77,
      "lon": -118.029245,
      "lat": 33.786461,
      "theaterChainName": "Independent Chains",
      "ticketType": "STANDARD"
    },
    {
      "id": 5272,
      "tribuneTheaterId": 10706,
      "providerTheaterId": "",
      "name": "Westminster 10",
      "address": "6721 Westminster Blvd.",
      "city": "Westminster",
      "state": "CA",
      "zip": "92683",
      "distance": 4.21,
      "lon": -118.0104,
      "lat": 33.7591,
      "theaterChainName": "Regency Theatres",
      "ticketType": "STANDARD"
    },
    {
      "id": 17,
      "tribuneTheaterId": 9234,
      "providerTheaterId": "248",
      "name": "AMC Fullerton 20",
      "address": "1001 S. Lemon St.",
      "city": "Fullerton",
      "state": "CA",
      "zip": "92832",
      "distance": 4.57,
      "lon": -117.920423,
      "lat": 33.861739,
      "theaterChainName": "AMC Theatres",
      "ticketType": "STANDARD"
    },
    {
      "id": 1601,
      "tribuneTheaterId": 5278,
      "providerTheaterId": "437",
      "name": "AMC Orange 30",
      "address": "20 City Blvd. W.",
      "city": "Orange",
      "state": "CA",
      "zip": "92868",
      "distance": 4.77,
      "lon": -117.893815,
      "lat": 33.782466,
      "theaterChainName": "AMC Theatres",
      "ticketType": "STANDARD"
    },
    {
      "id": 4117,
      "tribuneTheaterId": 4845,
      "providerTheaterId": "",
      "name": "Century Huntington Beach and XD",
      "address": "7777 Edinger Ave.",
      "city": "Huntington Beach",
      "state": "CA",
      "zip": "92647",
      "distance": 5.6,
      "lon": -117.994441,
      "lat": 33.731549,
      "theaterChainName": "Cinemark",
      "ticketType": "STANDARD"
    },
    {
      "id": 3643,
      "tribuneTheaterId": 2052,
      "providerTheaterId": "",
      "name": "La Mirada Dollar Movie 7",
      "address": "15296 Rosecrans Avenue",
      "city": "La Mirada",
      "state": "CA",
      "zip": "90638",
      "distance": 6.37,
      "lon": -118.005513,
      "lat": 33.897404,
      "theaterChainName": "Starplex Cinemas",
      "ticketType": "STANDARD"
    },
    {
      "id": 4189,
      "tribuneTheaterId": 5005,
      "providerTheaterId": "",
      "name": "Charter Centre Cinemas",
      "address": "7822 Warner Ave.",
      "city": "Huntington Beach",
      "state": "CA",
      "zip": "92647",
      "distance": 6.66,
      "lon": -117.991535,
      "lat": 33.715278,
      "theaterChainName": "Regency Theatres",
      "ticketType": "STANDARD"
    },
    {
      "id": 580,
      "tribuneTheaterId": 8524,
      "providerTheaterId": "",
      "name": "Century Stadium 25 and XD",
      "address": "1701 W. Katella Ave.",
      "city": "Orange",
      "state": "CA",
      "zip": "92867",
      "distance": 5.71,
      "lon": -117.8705,
      "lat": 33.8092,
      "theaterChainName": "Cinemark",
      "ticketType": "STANDARD"
    },
    {
      "id": 4275,
      "tribuneTheaterId": 2020,
      "providerTheaterId": "",
      "name": "Picture Show at Main Place",
      "address": "2800 N. Main St. Suite 999",
      "city": "Santa Ana",
      "state": "CA",
      "zip": "92705",
      "distance": 6.23,
      "lon": -117.869267,
      "lat": 33.77632,
      "theaterChainName": "Picture Show Entertainment",
      "ticketType": "STANDARD"
    },
    {
      "id": 101,
      "tribuneTheaterId": 9271,
      "providerTheaterId": "",
      "name": "Edwards Cerritos Stadium 10",
      "address": "12761 Towne Center Drive",
      "city": "Cerritos",
      "state": "CA",
      "zip": "90701",
      "distance": 6.65,
      "lon": -118.059184,
      "lat": 33.87136,
      "theaterChainName": "Edwards Theatres",
      "ticketType": "STANDARD"
    },
    {
      "id": 2291,
      "tribuneTheaterId": 8197,
      "providerTheaterId": "",
      "name": "Regal La Habra Stadium 16",
      "address": "1351 W. Imperial Highway",
      "city": "La Habra",
      "state": "CA",
      "zip": "90631",
      "distance": 7.52,
      "lon": -117.960463,
      "lat": 33.918559,
      "theaterChainName": "Regal Cinemas",
      "ticketType": "STANDARD"
    },
    {
      "id": 2446,
      "tribuneTheaterId": 5821,
      "providerTheaterId": "",
      "name": "Edwards Long Beach 26 & IMAX",
      "address": "7501 E. Carson Blvd",
      "city": "Long Beach",
      "state": "CA",
      "zip": "90808",
      "distance": 6.85,
      "lon": -118.086816,
      "lat": 33.830553,
      "theaterChainName": "Edwards Theatres",
      "ticketType": "STANDARD"
    },
    {
      "id": 5490,
      "tribuneTheaterId": 10931,
      "providerTheaterId": "",
      "name": "The Frida Cinema",
      "address": "305 E 4th St",
      "city": "Santa Ana",
      "state": "CA",
      "zip": "92701",
      "distance": 7.38,
      "lon": -117.8654,
      "lat": 33.748,
      "theaterChainName": "Metropolitan Theatres",
      "ticketType": "STANDARD"
    },
    {
      "id": 2282,
      "tribuneTheaterId": 5812,
      "providerTheaterId": "",
      "name": "Edwards Brea Stadium West 10",
      "address": "155 W. Birch St.",
      "city": "Brea",
      "state": "CA",
      "zip": "92821",
      "distance": 8.5,
      "lon": -117.901,
      "lat": 33.9189,
      "theaterChainName": "Edwards Theatres",
      "ticketType": "STANDARD"
    },
    {
      "id": 3426,
      "tribuneTheaterId": 5810,
      "providerTheaterId": "",
      "name": "Edwards Brea Stadium East 12",
      "address": "155 W. Birch St.",
      "city": "Brea",
      "state": "CA",
      "zip": "92821",
      "distance": 8.51,
      "lon": -117.899909,
      "lat": 33.918615,
      "theaterChainName": "Edwards Theatres",
      "ticketType": "STANDARD"
    },
    {
      "id": 4940,
      "tribuneTheaterId": 10293,
      "providerTheaterId": "",
      "name": "Brea Plaza 5 Discount Cinemas",
      "address": "453 S. Associated Rd.",
      "city": "Brea",
      "state": "CA",
      "zip": "92821",
      "distance": 8.71,
      "lon": -117.8797,
      "lat": 33.9125,
      "theaterChainName": "Tristone Cinemas",
      "ticketType": "STANDARD"
    },
    {
      "id": 4333,
      "tribuneTheaterId": 9308,
      "providerTheaterId": "",
      "name": "Regency South Coast Village",
      "address": "1561 W. Sunflower Ave.",
      "city": "Santa Ana",
      "state": "CA",
      "zip": "92704",
      "distance": 9.22,
      "lon": -117.888913,
      "lat": 33.694769,
      "theaterChainName": "Regency Theatres",
      "ticketType": "STANDARD"
    },
    {
      "id": 553,
      "tribuneTheaterId": 5811,
      "providerTheaterId": "",
      "name": "Edwards Metro Pointe Stadium 12",
      "address": "901 South Coast Dr.",
      "city": "Costa Mesa",
      "state": "CA",
      "zip": "92626",
      "distance": 9.4,
      "lon": -117.89602,
      "lat": 33.688614,
      "theaterChainName": "Edwards Theatres",
      "ticketType": "STANDARD"
    },
    {
      "id": 198,
      "tribuneTheaterId": 9268,
      "providerTheaterId": "441",
      "name": "AMC Norwalk 20",
      "address": "12300 E. Civic Center Drive",
      "city": "Norwalk",
      "state": "CA",
      "zip": "90650",
      "distance": 9.22,
      "lon": -118.071206,
      "lat": 33.913718,
      "theaterChainName": "AMC Theatres",
      "ticketType": "STANDARD"
    },
    {
      "id": 76,
      "tribuneTheaterId": 8884,
      "providerTheaterId": "",
      "name": "United Artists Long Beach Marketplace 6",
      "address": "6601 Pacific Coast Highway",
      "city": "Long Beach",
      "state": "CA",
      "zip": "90803",
      "distance": 8.78,
      "lon": -118.108193,
      "lat": 33.75566,
      "theaterChainName": "United Artists",
      "ticketType": "STANDARD"
    },
    {
      "id": 21,
      "tribuneTheaterId": 9093,
      "providerTheaterId": "234",
      "name": "AMC Marina Pacifica 12",
      "address": "6346 E. Pacific Coast Highway",
      "city": "Long Beach",
      "state": "CA",
      "zip": "90803",
      "distance": 8.97,
      "lon": -118.114051,
      "lat": 33.759757,
      "theaterChainName": "AMC Theatres",
      "ticketType": "STANDARD"
    },
    {
      "id": 431,
      "tribuneTheaterId": 8602,
      "providerTheaterId": "",
      "name": "Pacific Lakewood Center 16",
      "address": "5200 Faculty Ave.",
      "city": "Lakewood",
      "state": "CA",
      "zip": "90712",
      "distance": 9.99,
      "lon": -118.136803,
      "lat": 33.851101,
      "theaterChainName": "Pacific Theaters",
      "ticketType": "STANDARD"
    },
    {
      "id": 4928,
      "tribuneTheaterId": 10248,
      "providerTheaterId": "",
      "name": "Triangle Square Cinemas",
      "address": "1870 Harbor Blvd.",
      "city": "Costa Mesa",
      "state": "CA",
      "zip": "92627",
      "distance": 11.96,
      "lon": -117.918427,
      "lat": 33.642259,
      "theaterChainName": "Independent Chains",
      "ticketType": "STANDARD"
    },
    {
      "id": 495,
      "tribuneTheaterId": 3071,
      "providerTheaterId": "",
      "name": "Whittier Village Stadium Cinemas",
      "address": "7038 Greenleaf Ave.",
      "city": "Whittier",
      "state": "CA",
      "zip": "90602",
      "distance": 12.23,
      "lon": -118.037209,
      "lat": 33.977937,
      "theaterChainName": "Independent Chains",
      "ticketType": "STANDARD"
    },
    {
      "id": 4382,
      "tribuneTheaterId": 9426,
      "providerTheaterId": "427",
      "name": "AMC Tustin 14 at The District",
      "address": "2457 Park Ave.",
      "city": "Tustin",
      "state": "CA",
      "zip": "92782",
      "distance": 11.27,
      "lon": -117.828906,
      "lat": 33.696675,
      "theaterChainName": "AMC Theatres",
      "ticketType": "STANDARD"
    },
    {
      "id": 863,
      "tribuneTheaterId": 5190,
      "providerTheaterId": "",
      "name": "Cinema City Stadium Theatres",
      "address": "5635 E. La Palma Ave.",
      "city": "Anaheim",
      "state": "CA",
      "zip": "92807",
      "distance": 10.82,
      "lon": -117.7918,
      "lat": 33.861026,
      "theaterChainName": "Independent Chains",
      "ticketType": "STANDARD"
    },
    {
      "id": 344,
      "tribuneTheaterId": 9177,
      "providerTheaterId": "249",
      "name": "AMC Puente Hills 20",
      "address": "1560 S. Azusa Ave.",
      "city": "City of Industry",
      "state": "CA",
      "zip": "91748",
      "distance": 12.99,
      "lon": -117.926517,
      "lat": 33.99447,
      "theaterChainName": "AMC Theatres",
      "ticketType": "STANDARD"
    },
    {
      "id": 5852,
      "tribuneTheaterId": 11264,
      "providerTheaterId": "",
      "name": "Cinemark Downey and XD",
      "address": "8840 Apollo Way",
      "city": "Downey",
      "state": "CA",
      "zip": "90242",
      "distance": 12.03,
      "lon": -118.128651,
      "lat": 33.923936,
      "theaterChainName": "Cinemark",
      "ticketType": "STANDARD"
    },
    {
      "id": 95,
      "tribuneTheaterId": 8972,
      "providerTheaterId": "",
      "name": "Edwards Westpark 8",
      "address": "3755 Alton Parkway",
      "city": "Irvine",
      "state": "CA",
      "zip": "92606",
      "distance": 12.44,
      "lon": -117.81646,
      "lat": 33.683104,
      "theaterChainName": "Edwards Theatres",
      "ticketType": "STANDARD"
    },
    {
      "id": 1612,
      "tribuneTheaterId": 9079,
      "providerTheaterId": "",
      "name": "Edwards Marketplace Stadium 10",
      "address": "13782 Jamboree Road",
      "city": "Irvine",
      "state": "CA",
      "zip": "92602",
      "distance": 11.94,
      "lon": -117.790552,
      "lat": 33.722924,
      "theaterChainName": "Edwards Theatres",
      "ticketType": "STANDARD"
    },
    {
      "id": 94,
      "tribuneTheaterId": 8806,
      "providerTheaterId": "",
      "name": "Edwards University Town Center 6",
      "address": "4245 Campus Drive",
      "city": "Irvine",
      "state": "CA",
      "zip": "92612",
      "distance": 13.39,
      "lon": -117.838368,
      "lat": 33.65001,
      "theaterChainName": "Edwards Theatres",
      "ticketType": "STANDARD"
    },
    {
      "id": 1163,
      "tribuneTheaterId": 5877,
      "providerTheaterId": "",
      "name": "Krikorian Downey Cinema 10",
      "address": "8200 Third St.",
      "city": "Downey",
      "state": "CA",
      "zip": "90241",
      "distance": 13.09,
      "lon": -118.133302,
      "lat": 33.942263,
      "theaterChainName": "Krikorian Theatres",
      "ticketType": "STANDARD"
    },
    {
      "id": 1645,
      "tribuneTheaterId": 3170,
      "providerTheaterId": "",
      "name": "Bianchi Stadium 11 Theatres",
      "address": "7770 Rosecrans Ave.",
      "city": "Paramount",
      "state": "CA",
      "zip": "90723",
      "distance": 12.82,
      "lon": -118.163382,
      "lat": 33.903045,
      "theaterChainName": "Independent Chains",
      "ticketType": "STANDARD"
    },
    {
      "id": 3168,
      "tribuneTheaterId": 1857,
      "providerTheaterId": "",
      "name": "Woodbridge Movies 5",
      "address": "4626 Barranca Parkway",
      "city": "Irvine",
      "state": "CA",
      "zip": "92604",
      "distance": 13.39,
      "lon": -117.799847,
      "lat": 33.677555,
      "theaterChainName": "Starplex Cinemas",
      "ticketType": "STANDARD"
    },
    {
      "id": 84,
      "tribuneTheaterId": 9248,
      "providerTheaterId": "",
      "name": "Edwards Big Newport 6",
      "address": "300 Newport Center Drive",
      "city": "Newport Beach",
      "state": "CA",
      "zip": "92660",
      "distance": 14.73,
      "lon": -117.873393,
      "lat": 33.612605,
      "theaterChainName": "Edwards Theatres",
      "ticketType": "STANDARD"
    },
    {
      "id": 551,
      "tribuneTheaterId": 5813,
      "providerTheaterId": "",
      "name": "Edwards Anaheim Hills 14",
      "address": "8032 E. Santa Ana Canyon Rd.",
      "city": "Anaheim",
      "state": "CA",
      "zip": "92808",
      "distance": 13.07,
      "lon": -117.752175,
      "lat": 33.86517,
      "theaterChainName": "Edwards Theatres",
      "ticketType": "STANDARD"
    },
    {
      "id": 767,
      "tribuneTheaterId": 6353,
      "providerTheaterId": "",
      "name": "Mann Plymouth Cinema 12",
      "address": "3400 Vicksburgh Lane",
      "city": "Plymouth",
      "state": "MN",
      "zip": "55447",
      "distance": 15,
      "lon": -118.091054,
      "lat": 34.002467,
      "theaterChainName": "Mann Theatres MN",
      "ticketType": "STANDARD"
    }
  ]
}