{
  "theaters": [
    {
      "id": 4286,
      "tribuneTheaterId": 4176,
      "providerTheaterId": "",
      "name": "Cinemark Antelope Valley Mall",
      "address": "1475 W. Ave. P",
      "city": "Palmdale",
      "state": "CA",
      "zip": "93551",
      "distance": 7.45,
      "lon": -118.155684,
      "lat": 34.607923,
      "theaterChainName": "Cinemark",
      "ticketType": "STANDARD"
    },
    {
      "id": 5342,
      "tribuneTheaterId": 10779,
      "providerTheaterId": "",
      "name": "BLVD Cinemas",
      "address": "742 W. Lancaster Blvd",
      "city": "Lancaster",
      "state": "CA",
      "zip": "93534",
      "distance": 12.78,
      "lon": -118.1434,
      "lat": 34.6975,
      "theaterChainName": "Independent Chains",
      "ticketType": "STANDARD"
    },
    {
      "id": 640,
      "tribuneTheaterId": 8455,
      "providerTheaterId": "",
      "name": "Cinemark Movies 12 Lancaster",
      "address": "44790 Valley Central Way",
      "city": "Lancaster",
      "state": "CA",
      "zip": "93534",
      "distance": 13.22,
      "lon": -118.171174,
      "lat": 34.696011,
      "theaterChainName": "Cinemark",
      "ticketType": "STANDARD"
    },
    {
      "id": 2499,
      "tribuneTheaterId": 5215,
      "providerTheaterId": "",
      "name": "Cinemark 22 & IMAX Lancaster",
      "address": "2600 W. Ave. I",
      "city": "Lancaster",
      "state": "CA",
      "zip": "93536",
      "distance": 13.78,
      "lon": -118.177689,
      "lat": 34.702548,
      "theaterChainName": "Cinemark",
      "ticketType": "STANDARD"
    },
    {
      "id": 161,
      "tribuneTheaterId": 9228,
      "providerTheaterId": "",
      "name": "United Artists La Canada 8",
      "address": "1919 Verdugo Blvd.",
      "city": "Flintridge",
      "state": "CA",
      "zip": "91011",
      "distance": 23.03,
      "lon": -118.216925,
      "lat": 34.206404,
      "theaterChainName": "United Artists",
      "ticketType": "STANDARD"
    },
    {
      "id": 2270,
      "tribuneTheaterId": 5824,
      "providerTheaterId": "",
      "name": "Laemmle Playhouse 7",
      "address": "673 E. Colorado Blvd.",
      "city": "Pasadena",
      "state": "CA",
      "zip": "91101",
      "distance": 26.04,
      "lon": -118.136445,
      "lat": 34.14603,
      "theaterChainName": "Laemmle Theatres",
      "ticketType": "STANDARD"
    },
    {
      "id": 3110,
      "tribuneTheaterId": 7772,
      "providerTheaterId": "",
      "name": "Krikorian Monrovia Cinema 12",
      "address": "410 S. Myrtle Ave.",
      "city": "Monrovia",
      "state": "CA",
      "zip": "91016",
      "distance": 26.12,
      "lon": -118.000651,
      "lat": 34.147691,
      "theaterChainName": "Krikorian Theatres",
      "ticketType": "STANDARD"
    },
    {
      "id": 3894,
      "tribuneTheaterId": 4246,
      "providerTheaterId": "206",
      "name": "AMC Santa Anita 16",
      "address": "400 S. Baldwin Ave. Ste. 940-U",
      "city": "Arcadia",
      "state": "CA",
      "zip": "91007",
      "distance": 26.64,
      "lon": -118.048718,
      "lat": 34.13527,
      "theaterChainName": "AMC Theatres",
      "ticketType": "STANDARD"
    },
    {
      "id": 1603,
      "tribuneTheaterId": 5809,
      "providerTheaterId": "",
      "name": "Edwards Canyon Country Stadium 10",
      "address": "18800 Soledad Canyon Rd.",
      "city": "Canyon Country",
      "state": "CA",
      "zip": "91351",
      "distance": 22.99,
      "lon": -118.462851,
      "lat": 34.414585,
      "theaterChainName": "Edwards Theatres",
      "ticketType": "STANDARD"
    },
    {
      "id": 20,
      "tribuneTheaterId": 9275,
      "providerTheaterId": "209",
      "name": "AMC Theatres Burbank Town Center 8",
      "address": "201 E. Magnolia Blvd. #345",
      "city": "Burbank",
      "state": "CA",
      "zip": "91501",
      "distance": 26.75,
      "lon": -118.312151,
      "lat": 34.183604,
      "theaterChainName": "AMC Theatres",
      "ticketType": "STANDARD"
    },
    {
      "id": 164,
      "tribuneTheaterId": 9262,
      "providerTheaterId": "442",
      "name": "AMC Theatres Burbank Town Center 6",
      "address": "770 N. First St.",
      "city": "Burbank",
      "state": "CA",
      "zip": "91501",
      "distance": 26.77,
      "lon": -118.315325,
      "lat": 34.18484,
      "theaterChainName": "AMC Theatres",
      "ticketType": "STANDARD"
    },
    {
      "id": 3636,
      "tribuneTheaterId": 8983,
      "providerTheaterId": "218",
      "name": "AMC Burbank 16",
      "address": "125 E. Palm Ave.",
      "city": "Burbank",
      "state": "CA",
      "zip": "91502",
      "distance": 26.85,
      "lon": -118.311837,
      "lat": 34.181742,
      "theaterChainName": "AMC Theatres",
      "ticketType": "STANDARD"
    },
    {
      "id": 4485,
      "tribuneTheaterId": 9585,
      "providerTheaterId": "",
      "name": "Pacific Theatres Glendale 18",
      "address": "322 Americana Way",
      "city": "Glendale",
      "state": "CA",
      "zip": "91210",
      "distance": 27.92,
      "lon": -118.257316,
      "lat": 34.143397,
      "theaterChainName": "Pacific Theaters",
      "ticketType": "STANDARD"
    },
    {
      "id": 3570,
      "tribuneTheaterId": 8434,
      "providerTheaterId": "",
      "name": "Edwards Alhambra Renaissance Stadium 14 & IMAX",
      "address": "1 E. Main St",
      "city": "Alhambra",
      "state": "CA",
      "zip": "91801",
      "distance": 29.42,
      "lon": -118.126924,
      "lat": 34.095952,
      "theaterChainName": "Edwards Theatres",
      "ticketType": "STANDARD"
    },
    {
      "id": 99,
      "tribuneTheaterId": 8977,
      "providerTheaterId": "",
      "name": "Regency Foothill Cinema Stadium 10",
      "address": "854 E. Alosta Ave.",
      "city": "Azusa",
      "state": "CA",
      "zip": "91702",
      "distance": 29.15,
      "lon": -117.892027,
      "lat": 34.127729,
      "theaterChainName": "Regency Theatres",
      "ticketType": "STANDARD"
    },
    {
      "id": 100,
      "tribuneTheaterId": 8973,
      "providerTheaterId": "",
      "name": "Edwards El Monte 8",
      "address": "10661 Valley Blvd.",
      "city": "El Monte",
      "state": "CA",
      "zip": "91731",
      "distance": 30.67,
      "lon": -118.03932,
      "lat": 34.077457,
      "theaterChainName": "Edwards Theatres",
      "ticketType": "STANDARD"
    },
    {
      "id": 548,
      "tribuneTheaterId": 8246,
      "providerTheaterId": "239",
      "name": "AMC Covina 30",
      "address": "1414 N. Azusa Ave.",
      "city": "Covina",
      "state": "CA",
      "zip": "91722",
      "distance": 30.31,
      "lon": -117.9075,
      "lat": 34.1051,
      "theaterChainName": "AMC Theatres",
      "ticketType": "STANDARD"
    },
    {
      "id": 4944,
      "tribuneTheaterId": 10299,
      "providerTheaterId": "2414",
      "name": "AMC Atlantic Times Square 14",
      "address": "450 N. Atlantic Blvd.",
      "city": "Monterey Park",
      "state": "CA",
      "zip": "91754",
      "distance": 31.41,
      "lon": -118.1343,
      "lat": 34.0669,
      "theaterChainName": "AMC Theatres",
      "ticketType": "STANDARD"
    },
    {
      "id": 5141,
      "tribuneTheaterId": 10547,
      "providerTheaterId": "",
      "name": "Laemmle Noho 7",
      "address": "5240 Lankershim Blvd.",
      "city": "North Hollywood",
      "state": "CA",
      "zip": "91601",
      "distance": 29.68,
      "lon": -118.375053,
      "lat": 34.166249,
      "theaterChainName": "Laemmle Theatres",
      "ticketType": "STANDARD"
    },
    {
      "id": 293,
      "tribuneTheaterId": 6324,
      "providerTheaterId": "",
      "name": "Los Feliz 3",
      "address": "1822 N. Vermont Ave.",
      "city": "Los Angeles",
      "state": "CA",
      "zip": "90027",
      "distance": 31.16,
      "lon": -118.291647,
      "lat": 34.104341,
      "theaterChainName": "Independent Chains",
      "ticketType": "STANDARD"
    },
    {
      "id": 294,
      "tribuneTheaterId": 5154,
      "providerTheaterId": "",
      "name": "Vintage Cinemas Vista Theatre",
      "address": "4473 Sunset Blvd.",
      "city": "Hollywood",
      "state": "CA",
      "zip": "90027",
      "distance": 31.44,
      "lon": -118.286906,
      "lat": 34.098257,
      "theaterChainName": "Independent Chains",
      "ticketType": "STANDARD"
    },
    {
      "id": 246,
      "tribuneTheaterId": 8667,
      "providerTheaterId": "",
      "name": "Century 8",
      "address": "12827 Victory Blvd.",
      "city": "North Hollywood",
      "state": "CA",
      "zip": "91606",
      "distance": 29.83,
      "lon": -118.412752,
      "lat": 34.187053,
      "theaterChainName": "Cinemark",
      "ticketType": "STANDARD"
    },
    {
      "id": 4588,
      "tribuneTheaterId": 9740,
      "providerTheaterId": "430",
      "name": "AMC Glendora 12",
      "address": "1337 E. Gladstone St.",
      "city": "Glendora",
      "state": "CA",
      "zip": "91740",
      "distance": 31.12,
      "lon": -117.836118,
      "lat": 34.117098,
      "theaterChainName": "AMC Theatres",
      "ticketType": "STANDARD"
    },
    {
      "id": 5054,
      "tribuneTheaterId": 10434,
      "providerTheaterId": "",
      "name": "Regency Van Nuys Plant 16",
      "address": "7876 Van Nuys Blvd.",
      "city": "Van Nuys",
      "state": "CA",
      "zip": "91402",
      "distance": 29.59,
      "lon": -118.4487,
      "lat": 34.2142,
      "theaterChainName": "Regency Theatres",
      "ticketType": "STANDARD"
    },
    {
      "id": 555,
      "tribuneTheaterId": 5818,
      "providerTheaterId": "",
      "name": "Edwards West Covina Stadium 18",
      "address": "1200 Lakes Dr.",
      "city": "West Covina",
      "state": "CA",
      "zip": "91790",
      "distance": 32.31,
      "lon": -117.92355,
      "lat": 34.070569,
      "theaterChainName": "Edwards Theatres",
      "ticketType": "STANDARD"
    },
    {
      "id": 23,
      "tribuneTheaterId": 9144,
      "providerTheaterId": "232",
      "name": "AMC Montebello 10",
      "address": "1475 N. Montebello Blvd.",
      "city": "Montebello",
      "state": "CA",
      "zip": "90640",
      "distance": 33.61,
      "lon": -118.09276,
      "lat": 34.033716,
      "theaterChainName": "AMC Theatres",
      "ticketType": "STANDARD"
    },
    {
      "id": 2855,
      "tribuneTheaterId": 2588,
      "providerTheaterId": "",
      "name": "Egyptian Theatre - Hollywood",
      "address": "6712 Hollywood Blvd.",
      "city": "Hollywood",
      "state": "CA",
      "zip": "90028",
      "distance": 32.44,
      "lon": -118.336496,
      "lat": 34.100989,
      "theaterChainName": "American Cinematheque",
      "ticketType": "STANDARD"
    },
    {
      "id": 6127,
      "tribuneTheaterId": 11543,
      "providerTheaterId": "",
      "name": "Arena Cinelounge Sunset",
      "address": "6464 Sunset Blvd.",
      "city": "Hollywood",
      "state": "CA",
      "zip": "90028",
      "distance": 32.52,
      "lon": -118.3313,
      "lat": 34.097626,
      "theaterChainName": "Independent Chains",
      "ticketType": "STANDARD"
    },
    {
      "id": 104,
      "tribuneTheaterId": 8892,
      "providerTheaterId": "",
      "name": "Edwards Valencia Stadium 12",
      "address": "24435 Town Center Drive",
      "city": "Santa Clarita",
      "state": "CA",
      "zip": "91355",
      "distance": 28.32,
      "lon": -118.561707,
      "lat": 34.418613,
      "theaterChainName": "Edwards Theatres",
      "ticketType": "STANDARD"
    },
    {
      "id": 7,
      "tribuneTheaterId": 6710,
      "providerTheaterId": "",
      "name": "TCL Chinese Theatre",
      "address": "6801 Hollywood Blvd.",
      "city": "Hollywood",
      "state": "CA",
      "zip": "90028",
      "distance": 32.5,
      "lon": -118.3401,
      "lat": 34.1015,
      "theaterChainName": "Independent Chains",
      "ticketType": "STANDARD"
    },
    {
      "id": 292,
      "tribuneTheaterId": 8974,
      "providerTheaterId": "",
      "name": "Pacific El Capitan",
      "address": "6838 Hollywood Blvd.",
      "city": "Hollywood",
      "state": "CA",
      "zip": "90028",
      "distance": 32.52,
      "lon": -118.33978,
      "lat": 34.101195,
      "theaterChainName": "Independent Chains",
      "ticketType": "STANDARD"
    },
    {
      "id": 4854,
      "tribuneTheaterId": 10148,
      "providerTheaterId": "",
      "name": "Regency Granada Hills",
      "address": "16830 Devonshire St.",
      "city": "Granada Hills",
      "state": "CA",
      "zip": "91344",
      "distance": 30.03,
      "lon": -118.499082,
      "lat": 34.256773,
      "theaterChainName": "Regency Theatres",
      "ticketType": "STANDARD"
    },
    {
      "id": 4619,
      "tribuneTheaterId": 9794,
      "providerTheaterId": "",
      "name": "Downtown Independent",
      "address": "251 S. Main St.",
      "city": "Los Angeles",
      "state": "CA",
      "zip": "90012",
      "distance": 33.82,
      "lon": -118.245463,
      "lat": 34.050082,
      "theaterChainName": "Independent Chains",
      "ticketType": "STANDARD"
    },
    {
      "id": 429,
      "tribuneTheaterId": 7765,
      "providerTheaterId": "",
      "name": "Commerce 14",
      "address": "950 Goodrich Blvd.",
      "city": "Commerce",
      "state": "CA",
      "zip": "90022",
      "distance": 34.91,
      "lon": -118.153861,
      "lat": 34.018411,
      "theaterChainName": "Regency Theatres",
      "ticketType": "STANDARD"
    },
    {
      "id": 297,
      "tribuneTheaterId": 7605,
      "providerTheaterId": "",
      "name": "AMC Dine-in Sunset 5",
      "address": "8000 W. Sunset Blvd.",
      "city": "Los Angeles",
      "state": "CA",
      "zip": "90046",
      "distance": 33.43,
      "lon": -118.364909,
      "lat": 34.097263,
      "theaterChainName": "Sundance Cinemas",
      "ticketType": "STANDARD"
    },
    {
      "id": 4796,
      "tribuneTheaterId": 10051,
      "providerTheaterId": "",
      "name": "Regal Cinemas LA Live Stadium 14",
      "address": "1000 W. Olympic Blvd.",
      "city": "Los Angeles",
      "state": "CA",
      "zip": "90015",
      "distance": 34.47,
      "lon": -118.267409,
      "lat": 34.045757,
      "theaterChainName": "Regal Cinemas",
      "ticketType": "STANDARD"
    },
    {
      "id": 5216,
      "tribuneTheaterId": 10640,
      "providerTheaterId": "",
      "name": "CGV Cinemas LA",
      "address": "621 S. Western Ave.",
      "city": "Los Angeles",
      "state": "CA",
      "zip": "90005",
      "distance": 34.2,
      "lon": -118.309469,
      "lat": 34.062737,
      "theaterChainName": "Independent Chains",
      "ticketType": "STANDARD"
    },
    {
      "id": 102,
      "tribuneTheaterId": 9004,
      "providerTheaterId": "",
      "name": "Edwards La Verne Stadium 12",
      "address": "1950 Foothill Blvd.",
      "city": "La Verne",
      "state": "CA",
      "zip": "91750",
      "distance": 33.27,
      "lon": -117.768282,
      "lat": 34.11312,
      "theaterChainName": "Edwards Theatres",
      "ticketType": "STANDARD"
    },
    {
      "id": 1619,
      "tribuneTheaterId": 6099,
      "providerTheaterId": "",
      "name": "New Beverly Cinema",
      "address": "7165 W. Beverly Blvd.",
      "city": "Los Angeles",
      "state": "CA",
      "zip": "90036",
      "distance": 34.21,
      "lon": -118.345398,
      "lat": 34.076099,
      "theaterChainName": "Independent Chains",
      "ticketType": "STANDARD"
    },
    {
      "id": 3644,
      "tribuneTheaterId": 7764,
      "providerTheaterId": "",
      "name": "Pacific Sherman Oaks 5",
      "address": "14424 Milbank St.",
      "city": "Sherman Oaks",
      "state": "CA",
      "zip": "91423",
      "distance": 32.92,
      "lon": -118.447642,
      "lat": 34.152845,
      "theaterChainName": "Pacific Theaters",
      "ticketType": "STANDARD"
    }
  ]
}