{
  "theaters": [
    {
      "id": 2465,
      "tribuneTheaterId": 9186,
      "providerTheaterId": "",
      "name": "Century 25 Union City at Union Landing",
      "address": "32100 Union Landing",
      "city": "Union City",
      "state": "CA",
      "zip": "94587",
      "distance": 2.61,
      "lon": -122.067619,
      "lat": 37.599282,
      "theaterChainName": "Cinemark",
      "ticketType": "STANDARD"
    },
    {
      "id": 4579,
      "tribuneTheaterId": 9725,
      "providerTheaterId": "",
      "name": "Century at Hayward",
      "address": "1069 B Street",
      "city": "Hayward",
      "state": "CA",
      "zip": "94541",
      "distance": 3.75,
      "lon": -122.081223,
      "lat": 37.67345,
      "theaterChainName": "Cinemark",
      "ticketType": "STANDARD"
    },
    {
      "id": 788,
      "tribuneTheaterId": 6574,
      "providerTheaterId": "",
      "name": "Cinelux Chabot Cinema",
      "address": "2853 Castro Valley Blvd.",
      "city": "Castro Valley",
      "state": "CA",
      "zip": "94546",
      "distance": 5.08,
      "lon": -122.083222,
      "lat": 37.695116,
      "theaterChainName": "Cinelux Theatres",
      "ticketType": "STANDARD"
    },
    {
      "id": 3162,
      "tribuneTheaterId": 8666,
      "providerTheaterId": "",
      "name": "Century 16 Bayfair Mall",
      "address": "15555 E. 14th St.",
      "city": "San Leandro",
      "state": "CA",
      "zip": "94578",
      "distance": 6.61,
      "lon": -122.123326,
      "lat": 37.699325,
      "theaterChainName": "Cinemark",
      "ticketType": "STANDARD"
    },
    {
      "id": 5834,
      "tribuneTheaterId": 11244,
      "providerTheaterId": "456",
      "name": "AMC NewPark 12",
      "address": "400 Newpark Mall",
      "city": "Newark",
      "state": "CA",
      "zip": "94560",
      "distance": 7.41,
      "lon": -122.0012,
      "lat": 37.5273,
      "theaterChainName": "AMC Theatres",
      "ticketType": "STANDARD"
    },
    {
      "id": 8,
      "tribuneTheaterId": 8733,
      "providerTheaterId": "",
      "name": "Regal Crow Canyon",
      "address": "2525 San Ramon Valley Blvd.",
      "city": "San Ramon",
      "state": "CA",
      "zip": "94583",
      "distance": 10.47,
      "lon": -121.97511,
      "lat": 37.772634,
      "theaterChainName": "Regal Cinemas",
      "ticketType": "STANDARD"
    },
    {
      "id": 729,
      "tribuneTheaterId": 8690,
      "providerTheaterId": "",
      "name": "Century Blackhawk Plaza",
      "address": "4175 Blackhawk Plaza Circle",
      "city": "Danville",
      "state": "CA",
      "zip": "94526",
      "distance": 13.48,
      "lon": -121.917697,
      "lat": 37.79937,
      "theaterChainName": "Cinemark",
      "ticketType": "STANDARD"
    },
    {
      "id": 261,
      "tribuneTheaterId": 8431,
      "providerTheaterId": "",
      "name": "Century Cinemas 16",
      "address": "1500 N. Shoreline Blvd.",
      "city": "Mountain View",
      "state": "CA",
      "zip": "94043",
      "distance": 15.02,
      "lon": -122.080507,
      "lat": 37.41497,
      "theaterChainName": "Cinemark",
      "ticketType": "STANDARD"
    },
    {
      "id": 3398,
      "tribuneTheaterId": 7917,
      "providerTheaterId": "",
      "name": "CineArts at Palo Alto Square",
      "address": "3000 El Camino Real, Bldg. #6",
      "city": "Palo Alto",
      "state": "CA",
      "zip": "94306",
      "distance": 15.5,
      "lon": -122.141517,
      "lat": 37.420581,
      "theaterChainName": "Cinemark",
      "ticketType": "STANDARD"
    },
    {
      "id": 4227,
      "tribuneTheaterId": 5803,
      "providerTheaterId": "",
      "name": "Century 20 Downtown Redwood City",
      "address": "825 Middlefield Rd.",
      "city": "Redwood City",
      "state": "CA",
      "zip": "94063",
      "distance": 14.35,
      "lon": -122.228602,
      "lat": 37.485762,
      "theaterChainName": "Cinemark",
      "ticketType": "STANDARD"
    },
    {
      "id": 4514,
      "tribuneTheaterId": 9623,
      "providerTheaterId": "",
      "name": "Alameda Theatre & Cineplex",
      "address": "2317 Central Ave.",
      "city": "Alameda",
      "state": "CA",
      "zip": "94501",
      "distance": 14.5,
      "lon": -122.243415,
      "lat": 37.764571,
      "theaterChainName": "Independent Chains",
      "ticketType": "STANDARD"
    },
    {
      "id": 821,
      "tribuneTheaterId": 3975,
      "providerTheaterId": "",
      "name": "New Rheem Theatre",
      "address": "350 Park St.",
      "city": "Moraga",
      "state": "CA",
      "zip": "94556",
      "distance": 16.62,
      "lon": -122.126885,
      "lat": 37.860536,
      "theaterChainName": "Independent Chains",
      "ticketType": "STANDARD"
    },
    {
      "id": 506,
      "tribuneTheaterId": 8822,
      "providerTheaterId": "447",
      "name": "AMC Mercado 20",
      "address": "3111 Mission College Blvd.",
      "city": "Santa Clara",
      "state": "CA",
      "zip": "95054",
      "distance": 16.94,
      "lon": -121.982971,
      "lat": 37.388997,
      "theaterChainName": "AMC Theatres",
      "ticketType": "STANDARD"
    },
    {
      "id": 3098,
      "tribuneTheaterId": 8220,
      "providerTheaterId": "",
      "name": "Century 20 Great Mall",
      "address": "1010 Great Mall Drive",
      "city": "Milpitas",
      "state": "CA",
      "zip": "95035",
      "distance": 16.56,
      "lon": -121.899033,
      "lat": 37.417942,
      "theaterChainName": "Cinemark",
      "ticketType": "STANDARD"
    },
    {
      "id": 3646,
      "tribuneTheaterId": 4846,
      "providerTheaterId": "",
      "name": "Century 14 Downtown Walnut Creek",
      "address": "1201 Locust St.",
      "city": "Walnut Creek",
      "state": "CA",
      "zip": "94596",
      "distance": 18.45,
      "lon": -122.061614,
      "lat": 37.896463,
      "theaterChainName": "Cinemark",
      "ticketType": "STANDARD"
    },
    {
      "id": 1491,
      "tribuneTheaterId": 2819,
      "providerTheaterId": "",
      "name": "Vine Cinema & Alehouse",
      "address": "1722 First St.",
      "city": "Livermore",
      "state": "CA",
      "zip": "94550",
      "distance": 14.92,
      "lon": -121.774644,
      "lat": 37.679928,
      "theaterChainName": "Independent Chains",
      "ticketType": "STANDARD"
    },
    {
      "id": 738,
      "tribuneTheaterId": 6113,
      "providerTheaterId": "",
      "name": "Renaissance Grand Lake Theatre",
      "address": "3200 Grand Ave.",
      "city": "Oakland",
      "state": "CA",
      "zip": "94610",
      "distance": 16.92,
      "lon": -122.247734,
      "lat": 37.811498,
      "theaterChainName": "Independent Chains",
      "ticketType": "STANDARD"
    },
    {
      "id": 4300,
      "tribuneTheaterId": 2276,
      "providerTheaterId": "",
      "name": "Livermore Cinemas",
      "address": "2490 First Street",
      "city": "Livermore",
      "state": "CA",
      "zip": "94550",
      "distance": 15.37,
      "lon": -121.7668,
      "lat": 37.6834,
      "theaterChainName": "CinemaWest",
      "ticketType": "STANDARD"
    },
    {
      "id": 730,
      "tribuneTheaterId": 6396,
      "providerTheaterId": "",
      "name": "Orinda Theatre",
      "address": "4 Orinda Theatre Square",
      "city": "Orinda",
      "state": "CA",
      "zip": "94563",
      "distance": 18.86,
      "lon": -122.182103,
      "lat": 37.878754,
      "theaterChainName": "Independent Chains",
      "ticketType": "STANDARD"
    },
    {
      "id": 3596,
      "tribuneTheaterId": 9106,
      "providerTheaterId": "",
      "name": "Century 12 Downtown San Mateo",
      "address": "320 East 2nd Ave.",
      "city": "San Mateo",
      "state": "CA",
      "zip": "94401",
      "distance": 16.08,
      "lon": -122.322502,
      "lat": 37.566194,
      "theaterChainName": "Cinemark",
      "ticketType": "STANDARD"
    },
    {
      "id": 739,
      "tribuneTheaterId": 7142,
      "providerTheaterId": "",
      "name": "Regal Jack London",
      "address": "100 Washington St.",
      "city": "Oakland",
      "state": "CA",
      "zip": "94607",
      "distance": 17.33,
      "lon": -122.27762,
      "lat": 37.796125,
      "theaterChainName": "Regal Cinemas",
      "ticketType": "STANDARD"
    },
    {
      "id": 4335,
      "tribuneTheaterId": 9311,
      "providerTheaterId": "424",
      "name": "AMC Cupertino Square 16",
      "address": "10123 N. Wolfe Road",
      "city": "Cupertino",
      "state": "CA",
      "zip": "95014",
      "distance": 21.06,
      "lon": -122.014849,
      "lat": 37.325879,
      "theaterChainName": "AMC Theatres",
      "ticketType": "STANDARD"
    },
    {
      "id": 4866,
      "tribuneTheaterId": 10164,
      "providerTheaterId": "",
      "name": "Bluelight Cinemas 5",
      "address": "21275 Stevens Creek Blvd.",
      "city": "Cupertino",
      "state": "CA",
      "zip": "95014",
      "distance": 21.17,
      "lon": -122.049006,
      "lat": 37.323724,
      "theaterChainName": "Independent Chains",
      "ticketType": "STANDARD"
    },
    {
      "id": 3408,
      "tribuneTheaterId": 7598,
      "providerTheaterId": "",
      "name": "Century 16 Downtown Pleasant Hill",
      "address": "125 Crescent Drive",
      "city": "Pleasant Hill",
      "state": "CA",
      "zip": "94523",
      "distance": 21.78,
      "lon": -122.06192,
      "lat": 37.944773,
      "theaterChainName": "Cinemark",
      "ticketType": "STANDARD"
    },
    {
      "id": 780,
      "tribuneTheaterId": 6057,
      "providerTheaterId": "",
      "name": "Towne 3",
      "address": "1433 The Alameda",
      "city": "San Jose",
      "state": "CA",
      "zip": "95126",
      "distance": 21.63,
      "lon": -121.914467,
      "lat": 37.333212,
      "theaterChainName": "Independent Chains",
      "ticketType": "STANDARD"
    },
    {
      "id": 3582,
      "tribuneTheaterId": 8820,
      "providerTheaterId": "215",
      "name": "AMC Bay Street 16",
      "address": "5614 Bay St.",
      "city": "Emeryville",
      "state": "CA",
      "zip": "94608",
      "distance": 19.67,
      "lon": -122.292116,
      "lat": 37.833205,
      "theaterChainName": "AMC Theatres",
      "ticketType": "STANDARD"
    },
    {
      "id": 3865,
      "tribuneTheaterId": 6723,
      "providerTheaterId": "",
      "name": "CineArts at Santana Row",
      "address": "3088 Olsen Drive",
      "city": "San Jose",
      "state": "CA",
      "zip": "95128",
      "distance": 22.07,
      "lon": -121.948307,
      "lat": 37.319044,
      "theaterChainName": "Cinemark",
      "ticketType": "STANDARD"
    },
    {
      "id": 727,
      "tribuneTheaterId": 7585,
      "providerTheaterId": "",
      "name": "United Artists Berkeley 7",
      "address": "2274 Shattuck Ave.",
      "city": "Berkeley",
      "state": "CA",
      "zip": "94704",
      "distance": 20.62,
      "lon": -122.268251,
      "lat": 37.867605,
      "theaterChainName": "United Artists",
      "ticketType": "STANDARD"
    },
    {
      "id": 5759,
      "tribuneTheaterId": 11201,
      "providerTheaterId": "",
      "name": "UC Berkeley Art Museum and Pacific Film Archive",
      "address": "2155 Center St.",
      "city": "Berkeley",
      "state": "CA",
      "zip": "94704",
      "distance": 20.73,
      "lon": -122.266422,
      "lat": 37.870809,
      "theaterChainName": "Independent Chains",
      "ticketType": "STANDARD"
    },
    {
      "id": 2652,
      "tribuneTheaterId": 2560,
      "providerTheaterId": "",
      "name": "Pacific Film Archive Theater",
      "address": "2575 Bancroft Way",
      "city": "Berkeley",
      "state": "CA",
      "zip": "94704",
      "distance": 20.73,
      "lon": -122.266422,
      "lat": 37.870809,
      "theaterChainName": "Independent Chains",
      "ticketType": "STANDARD"
    },
    {
      "id": 779,
      "tribuneTheaterId": 6520,
      "providerTheaterId": "",
      "name": "Camera 3",
      "address": "288 S. Second St.",
      "city": "San Jose",
      "state": "CA",
      "zip": "95113",
      "distance": 22.23,
      "lon": -121.886028,
      "lat": 37.332438,
      "theaterChainName": "Independent Chains",
      "ticketType": "STANDARD"
    },
    {
      "id": 549,
      "tribuneTheaterId": 8762,
      "providerTheaterId": "433",
      "name": "AMC Saratoga 14",
      "address": "700 El Paseo De Saratoga",
      "city": "San Jose",
      "state": "CA",
      "zip": "95130",
      "distance": 23.74,
      "lon": -121.989949,
      "lat": 37.288734,
      "theaterChainName": "AMC Theatres",
      "ticketType": "STANDARD"
    },
    {
      "id": 819,
      "tribuneTheaterId": 6282,
      "providerTheaterId": "",
      "name": "Brenden Concord 14",
      "address": "1985 Willow Pass Road",
      "city": "Concord",
      "state": "CA",
      "zip": "94520",
      "distance": 23.92,
      "lon": -122.036232,
      "lat": 37.976202,
      "theaterChainName": "Brenden Theatres",
      "ticketType": "STANDARD"
    },
    {
      "id": 776,
      "tribuneTheaterId": 6585,
      "providerTheaterId": "",
      "name": "CineLux Plaza Theatre",
      "address": "2501 S. Winchester Blvd.",
      "city": "Campbell",
      "state": "CA",
      "zip": "95008",
      "distance": 24.77,
      "lon": -121.950956,
      "lat": 37.278577,
      "theaterChainName": "Cinelux Theatres",
      "ticketType": "STANDARD"
    },
    {
      "id": 9,
      "tribuneTheaterId": 7311,
      "providerTheaterId": "",
      "name": "Contra Costa Stadium Cinemas",
      "address": "555 Center Ave.",
      "city": "Martinez",
      "state": "CA",
      "zip": "94553",
      "distance": 25.5,
      "lon": -122.11882,
      "lat": 37.99383,
      "theaterChainName": "CinemaWest",
      "ticketType": "STANDARD"
    },
    {
      "id": 775,
      "tribuneTheaterId": 6120,
      "providerTheaterId": "",
      "name": "Cinelux Almaden Cinema",
      "address": "2306 Almaden Road",
      "city": "San Jose",
      "state": "CA",
      "zip": "95125",
      "distance": 24.98,
      "lon": -121.8805,
      "lat": 37.2914,
      "theaterChainName": "Cinelux Theatres",
      "ticketType": "STANDARD"
    },
    {
      "id": 4478,
      "tribuneTheaterId": 9573,
      "providerTheaterId": "",
      "name": "Century at Tanforan",
      "address": "1188 El Camino Real Ave.",
      "city": "San Bruno",
      "state": "CA",
      "zip": "94066",
      "distance": 20.69,
      "lon": -122.417902,
      "lat": 37.637761,
      "theaterChainName": "Cinemark",
      "ticketType": "STANDARD"
    },
    {
      "id": 4280,
      "tribuneTheaterId": 1450,
      "providerTheaterId": "",
      "name": "Rialto Cinemas Cerrito",
      "address": "10070 San Pablo Ave.",
      "city": "El Cerrito",
      "state": "CA",
      "zip": "94530",
      "distance": 23.64,
      "lon": -122.302784,
      "lat": 37.901896,
      "theaterChainName": "Independent Chains",
      "ticketType": "STANDARD"
    },
    {
      "id": 4133,
      "tribuneTheaterId": 5275,
      "providerTheaterId": "219",
      "name": "AMC Eastridge 15",
      "address": "2190 Eastrdige Loop",
      "city": "San Jose",
      "state": "CA",
      "zip": "95122",
      "distance": 24.5,
      "lon": -121.814368,
      "lat": 37.323999,
      "theaterChainName": "AMC Theatres",
      "ticketType": "STANDARD"
    },
    {
      "id": 2497,
      "tribuneTheaterId": 7641,
      "providerTheaterId": "2325",
      "name": "AMC Metreon 16",
      "address": "101 Fourth St",
      "city": "San Francisco",
      "state": "CA",
      "zip": "94103",
      "distance": 22.59,
      "lon": -122.404132,
      "lat": 37.784542,
      "theaterChainName": "AMC Theatres",
      "ticketType": "STANDARD"
    }
  ]
}