{
  "theaters": [
    {
      "id": 15,
      "tribuneTheaterId": 8736,
      "providerTheaterId": "",
      "name": "United Artists Laguna Village 12",
      "address": "8755 Center Parkway",
      "city": "Sacramento",
      "state": "CA",
      "zip": "95823",
      "distance": 2.35,
      "lon": -121.421403,
      "lat": 38.439237,
      "theaterChainName": "United Artists",
      "ticketType": "STANDARD"
    },
    {
      "id": 251,
      "tribuneTheaterId": 8221,
      "providerTheaterId": "",
      "name": "Century Laguna 16",
      "address": "9349 Big Horn Blvd.",
      "city": "Elk Grove",
      "state": "CA",
      "zip": "95758",
      "distance": 4.05,
      "lon": -121.404532,
      "lat": 38.418315,
      "theaterChainName": "Cinemark",
      "ticketType": "STANDARD"
    },
    {
      "id": 400,
      "tribuneTheaterId": 6106,
      "providerTheaterId": "",
      "name": "Tower Theatre - Sacramento",
      "address": "2508 Landpark Dr.",
      "city": "Sacramento",
      "state": "CA",
      "zip": "95818",
      "distance": 6.95,
      "lon": -121.493329,
      "lat": 38.561557,
      "theaterChainName": "Reading International, Inc",
      "ticketType": "STANDARD"
    },
    {
      "id": 809,
      "tribuneTheaterId": 8810,
      "providerTheaterId": "",
      "name": "Crest Theatre",
      "address": "1013 K. St.",
      "city": "Sacramento",
      "state": "CA",
      "zip": "95814",
      "distance": 8.08,
      "lon": -121.493411,
      "lat": 38.579161,
      "theaterChainName": "Independent Chains",
      "ticketType": "STANDARD"
    },
    {
      "id": 6032,
      "tribuneTheaterId": 11435,
      "providerTheaterId": "",
      "name": "Century Arden 14 and XD",
      "address": "1590 Ethan Way",
      "city": "Sacramento",
      "state": "CA",
      "zip": "95825",
      "distance": 8.64,
      "lon": -121.420069,
      "lat": 38.594135,
      "theaterChainName": "Cinemark",
      "ticketType": "STANDARD"
    },
    {
      "id": 92,
      "tribuneTheaterId": 7148,
      "providerTheaterId": "",
      "name": "United Artist Arden Fair 6",
      "address": "1739 Arden Way",
      "city": "Sacramento",
      "state": "CA",
      "zip": "95815",
      "distance": 8.96,
      "lon": -121.423827,
      "lat": 38.599089,
      "theaterChainName": "United Artists",
      "ticketType": "STANDARD"
    },
    {
      "id": 2581,
      "tribuneTheaterId": 7422,
      "providerTheaterId": "",
      "name": "Regal Natomas Stadium 16",
      "address": "3561 Truxel Road",
      "city": "Sacramento",
      "state": "CA",
      "zip": "95834",
      "distance": 11.87,
      "lon": -121.503218,
      "lat": 38.634489,
      "theaterChainName": "Regal Cinemas",
      "ticketType": "STANDARD"
    },
    {
      "id": 3598,
      "tribuneTheaterId": 4848,
      "providerTheaterId": "",
      "name": "Century 16 Greenback Lane",
      "address": "6233 Garfield Ave.- At former site of Cinedome 9",
      "city": "Sacramento",
      "state": "CA",
      "zip": "95841",
      "distance": 15.58,
      "lon": -121.335658,
      "lat": 38.680255,
      "theaterChainName": "Cinemark",
      "ticketType": "STANDARD"
    },
    {
      "id": 93,
      "tribuneTheaterId": 7274,
      "providerTheaterId": "",
      "name": "United Artists Sunrise Mall 4",
      "address": "5926 Sunrise Mall",
      "city": "Citrus Heights",
      "state": "CA",
      "zip": "95610",
      "distance": 16.82,
      "lon": -121.268656,
      "lat": 38.673199,
      "theaterChainName": "United Artists",
      "ticketType": "STANDARD"
    },
    {
      "id": 253,
      "tribuneTheaterId": 8971,
      "providerTheaterId": "",
      "name": "Century Folsom",
      "address": "261 Iron Point Road",
      "city": "Folsom",
      "state": "CA",
      "zip": "95630",
      "distance": 17.93,
      "lon": -121.191071,
      "lat": 38.641524,
      "theaterChainName": "Cinemark",
      "ticketType": "STANDARD"
    },
    {
      "id": 850,
      "tribuneTheaterId": 6633,
      "providerTheaterId": "",
      "name": "Regal Davis Holiday 6",
      "address": "101 F St.",
      "city": "Davis",
      "state": "CA",
      "zip": "95616",
      "distance": 16.97,
      "lon": -121.740028,
      "lat": 38.542189,
      "theaterChainName": "Regal Cinemas",
      "ticketType": "STANDARD"
    },
    {
      "id": 4186,
      "tribuneTheaterId": 1057,
      "providerTheaterId": "",
      "name": "Varsity Theatre - Davis",
      "address": "616 2nd St.",
      "city": "Davis",
      "state": "CA",
      "zip": "95616",
      "distance": 17.01,
      "lon": -121.7408,
      "lat": 38.5432,
      "theaterChainName": "Independent Chains",
      "ticketType": "STANDARD"
    },
    {
      "id": 851,
      "tribuneTheaterId": 6632,
      "providerTheaterId": "",
      "name": "Regal Davis Stadium 5",
      "address": "420 G St.",
      "city": "Davis",
      "state": "CA",
      "zip": "95616",
      "distance": 17.04,
      "lon": -121.73962,
      "lat": 38.546655,
      "theaterChainName": "Regal Cinemas",
      "ticketType": "STANDARD"
    },
    {
      "id": 861,
      "tribuneTheaterId": 6818,
      "providerTheaterId": "",
      "name": "Century Roseville 14",
      "address": "1555 Eureka Road",
      "city": "Roseville",
      "state": "CA",
      "zip": "95661",
      "distance": 21.96,
      "lon": -121.247563,
      "lat": 38.749959,
      "theaterChainName": "Cinemark",
      "ticketType": "STANDARD"
    },
    {
      "id": 346,
      "tribuneTheaterId": 9103,
      "providerTheaterId": "",
      "name": "United Artists Olympus Pointe",
      "address": "520 N. Sunrise Ave.",
      "city": "Roseville",
      "state": "CA",
      "zip": "95661",
      "distance": 22.17,
      "lon": -121.25627,
      "lat": 38.75697,
      "theaterChainName": "United Artists",
      "ticketType": "STANDARD"
    },
    {
      "id": 4974,
      "tribuneTheaterId": 10334,
      "providerTheaterId": "",
      "name": "Blue Oaks Century Theatres",
      "address": "6692 Lonetree Blvd.",
      "city": "Rocklin",
      "state": "CA",
      "zip": "95765",
      "distance": 23.96,
      "lon": -121.293676,
      "lat": 38.797412,
      "theaterChainName": "Cinemark",
      "ticketType": "STANDARD"
    },
    {
      "id": 4863,
      "tribuneTheaterId": 10161,
      "providerTheaterId": "",
      "name": "Palladio 16 Cinemas",
      "address": "240 Palladio Parkway",
      "city": "Folsom",
      "state": "CA",
      "zip": "95630",
      "distance": 21.22,
      "lon": -121.120188,
      "lat": 38.648324,
      "theaterChainName": "CinemaWest",
      "ticketType": "STANDARD"
    },
    {
      "id": 3350,
      "tribuneTheaterId": 3198,
      "providerTheaterId": "",
      "name": "Lodi Stadium 12 Cinemas",
      "address": "109 N. School Street",
      "city": "Lodi",
      "state": "CA",
      "zip": "95240",
      "distance": 24.8,
      "lon": -121.273805,
      "lat": 38.135627,
      "theaterChainName": "SR Entertainment",
      "ticketType": "STANDARD"
    },
    {
      "id": 1313,
      "tribuneTheaterId": 4169,
      "providerTheaterId": "",
      "name": "Cinemark Movies 5 Woodland",
      "address": "1579 A East Street",
      "city": "Woodland",
      "state": "CA",
      "zip": "95776",
      "distance": 21.92,
      "lon": -121.765226,
      "lat": 38.659631,
      "theaterChainName": "Cinemark",
      "ticketType": "STANDARD"
    },
    {
      "id": 6140,
      "tribuneTheaterId": 11560,
      "providerTheaterId": "",
      "name": "State Theatre and Multiplex",
      "address": "322 Main Street",
      "city": "Woodland",
      "state": "CA",
      "zip": "95695",
      "distance": 23.17,
      "lon": -121.777315,
      "lat": 38.67712,
      "theaterChainName": "CinemaWest",
      "ticketType": "STANDARD"
    },
    {
      "id": 5597,
      "tribuneTheaterId": 11051,
      "providerTheaterId": "",
      "name": "Studio Movie Grill Rocklin",
      "address": "5140 Commons Drive",
      "city": "Rocklin",
      "state": "CA",
      "zip": "95677",
      "distance": 26.35,
      "lon": -121.206459,
      "lat": 38.804881,
      "theaterChainName": "Studio Movie Grill",
      "ticketType": "SELECT_SEATING"
    },
    {
      "id": 4001,
      "tribuneTheaterId": 4652,
      "providerTheaterId": "",
      "name": "Regal El Dorado Hills Stadium 14 + IMAX",
      "address": "2101 Vine Street",
      "city": "El Dorado Hills",
      "state": "CA",
      "zip": "95762",
      "distance": 23.97,
      "lon": -121.062437,
      "lat": 38.65204,
      "theaterChainName": "Regal Cinemas",
      "ticketType": "STANDARD"
    },
    {
      "id": 1261,
      "tribuneTheaterId": 5645,
      "providerTheaterId": "",
      "name": "Holiday Cinemas 8",
      "address": "6262 West Ln.",
      "city": "Stockton",
      "state": "CA",
      "zip": "95210",
      "distance": 32.62,
      "lon": -121.293904,
      "lat": 38.012116,
      "theaterChainName": "Regal Cinemas",
      "ticketType": "STANDARD"
    },
    {
      "id": 1734,
      "tribuneTheaterId": 3226,
      "providerTheaterId": "",
      "name": "Brenden Vacaville 16",
      "address": "531 Davis Street",
      "city": "Vacaville",
      "state": "CA",
      "zip": "95688",
      "distance": 30.59,
      "lon": -121.984883,
      "lat": 38.353172,
      "theaterChainName": "Brenden Theatres",
      "ticketType": "STANDARD"
    }
  ]
}